[
 {
  "DEPARTAMENTO": "SANTANDER",
  "MUNICIPIO": "FLORIDABLANCA",
  "LONGITUD": -73.0338,
  "LATITUD": 7.1304,
  "VEREDA_BARRIO": "VEREDA",
  "NOMBRE": "AGUA BLANCA",
  "GESTION": "CREAR",
  "CARENCIA": "PUENTE",
  "NOMBRE_GRUPO_ARMADO": "ZONA 1",
  "FACTOR": "FACTOR DE INFRAESTRUCTURA",
  "FACTOR_SIMPLIFICADO": "INFRAESTRUCTURA",
  "ACTOR_A_EJECUTAR": "GOBERNACIÓN",
  "HABITANTES": 18000,
  "DESESCOLARIDAD_2019_2023": 200,
  "DESESCOLARIDAD_2024_2027": 5
 },
 {
  "DEPARTAMENTO": "SANTANDER",
  "MUNICIPIO": "FLORIDABLANCA",
  "LONGITUD": -73.0343,
  "LATITUD": 7.1175,
  "VEREDA_BARRIO": "VEREDA",
  "NOMBRE": "AGUA BLANCA",
  "GESTION": "CREAR",
  "CARENCIA": "ANTENA TELEFONICA",
  "NOMBRE_GRUPO_ARMADO": "ZONA 2",
  "FACTOR": "FACTOR DE INFRAESTRUCTURA",
  "FACTOR_SIMPLIFICADO": "INFRAESTRUCTURA",
  "ACTOR_A_EJECUTAR": "GOBERNACIÓN",
  "HABITANTES": 18000,
  "DESESCOLARIDAD_2019_2023": 200,
  "DESESCOLARIDAD_2024_2027": 5
 },
 {
  "DEPARTAMENTO": "SANTANDER",
  "MUNICIPIO": "FLORIDABLANCA",
  "LONGITUD": -73.0106,
  "LATITUD": 71.087,
  "VEREDA_BARRIO": "VEREDA",
  "NOMBRE": "AGUA BLANCA",
  "GESTION": "OPTIMIZAR",
  "CARENCIA": "ACUEDUCTO",
  "NOMBRE_GRUPO_ARMADO": "ZONA 3",
  "FACTOR": "FACTOR DE INFRAESTRUCTURA",
  "FACTOR_SIMPLIFICADO": "INFRAESTRUCTURA",
  "ACTOR_A_EJECUTAR": "GOBERNACIÓN",
  "HABITANTES": 18000,
  "DESESCOLARIDAD_2019_2023": 200,
  "DESESCOLARIDAD_2024_2027": 5
 },
 {
  "DEPARTAMENTO": "SANTANDER",
  "MUNICIPIO": "FLORIDABLANCA",
  "LONGITUD": -73.0357,
  "LATITUD": 7.116,
  "VEREDA_BARRIO": "VEREDA",
  "NOMBRE": "AGUA BLANCA",
  "GESTION": "COMBATIR",
  "CARENCIA": "GRUPO ARMADO",
  "NOMBRE_GRUPO_ARMADO": "CLAN DEL GOLFO",
  "FACTOR": "FACTOR DE SEGURIDAD",
  "FACTOR_SIMPLIFICADO": "SEGURIDAD",
  "ACTOR_A_EJECUTAR": "GOBERNACIÓN",
  "HABITANTES": 18000,
  "DESESCOLARIDAD_2019_2023": 200,
  "DESESCOLARIDAD_2024_2027": 5
 },
 {
  "DEPARTAMENTO": "SANTANDER",
  "MUNICIPIO": "FLORIDABLANCA",
  "LONGITUD": -73.0455,
  "LATITUD": 7.1289,
  "VEREDA_BARRIO": "VEREDA",
  "NOMBRE": "AGUA BLANCA",
  "GESTION": "COMBATIR",
  "CARENCIA": "GRUPO ARMADO",
  "NOMBRE_GRUPO_ARMADO": "ELN",
  "FACTOR": "FACTOR DE SEGURIDAD",
  "FACTOR_SIMPLIFICADO": "SEGURIDAD",
  "ACTOR_A_EJECUTAR": "GOBERNACIÓN",
  "HABITANTES": 18000,
  "DESESCOLARIDAD_2019_2023": 200,
  "DESESCOLARIDAD_2024_2027": 5
 },
 {
  "DEPARTAMENTO": "SANTANDER",
  "MUNICIPIO": "FLORIDABLANCA",
  "LONGITUD": -73.0396,
  "LATITUD": 7.1288,
  "VEREDA_BARRIO": "VEREDA",
  "NOMBRE": "AGUA BLANCA",
  "GESTION": "OPTIMIZAR",
  "CARENCIA": "BASURAS",
  "NOMBRE_GRUPO_ARMADO": "ZONA 1",
  "FACTOR": "FACTOR AMBIENTAL",
  "FACTOR_SIMPLIFICADO": "AMBIENTAL",
  "ACTOR_A_EJECUTAR": "GOBERNACIÓN",
  "HABITANTES": 18000,
  "DESESCOLARIDAD_2019_2023": 200,
  "DESESCOLARIDAD_2024_2027": 5
 },
 {
  "DEPARTAMENTO": "SANTANDER",
  "MUNICIPIO": "FLORIDABLANCA",
  "LONGITUD": -73.0338,
  "LATITUD": 7.1161,
  "VEREDA_BARRIO": "VEREDA",
  "NOMBRE": "AGUA BLANCA",
  "GESTION": "OPTIMIZAR",
  "CARENCIA": "TALA DE ARBOLES",
  "NOMBRE_GRUPO_ARMADO": "ZONA 1",
  "FACTOR": "FACTOR AMBIENTAL",
  "FACTOR_SIMPLIFICADO": "AMBIENTAL",
  "ACTOR_A_EJECUTAR": "GOBERNACIÓN",
  "HABITANTES": 18000,
  "DESESCOLARIDAD_2019_2023": 200,
  "DESESCOLARIDAD_2024_2027": 5
 },
 {
  "DEPARTAMENTO": "SANTANDER",
  "MUNICIPIO": "FLORIDABLANCA",
  "LONGITUD": -73.031,
  "LATITUD": 7.1141,
  "VEREDA_BARRIO": "VEREDA",
  "NOMBRE": "AGUA BLANCA",
  "GESTION": "REPARAR",
  "CARENCIA": "ESCUELA",
  "NOMBRE_GRUPO_ARMADO": "NOMBRE LA INTITUCIÓN EDUCATIVA",
  "FACTOR": "FACTOR POLITICO INSTITUCIONAL",
  "FACTOR_SIMPLIFICADO": "POLITICO INSTITUCIONAL",
  "ACTOR_A_EJECUTAR": "GOBIERNO",
  "HABITANTES": 18000,
  "DESESCOLARIDAD_2019_2023": 200,
  "DESESCOLARIDAD_2024_2027": 5
 },
 {
  "DEPARTAMENTO": "SANTANDER",
  "MUNICIPIO": "FLORIDABLANCA",
  "LONGITUD": -73.8647,
  "LATITUD": 7.0676,
  "VEREDA_BARRIO": "VEREDA",
  "NOMBRE": "VERICUTE",
  "GESTION": "OPTIMIZAR",
  "CARENCIA": "ESCUELA",
  "NOMBRE_GRUPO_ARMADO": "NOMBRE LA INTITUCIÓN EDUCATIVA",
  "FACTOR": "FACTOR DE INFRAESTRUCTURA",
  "FACTOR_SIMPLIFICADO": "INFRAESTRUCTURA",
  "ACTOR_A_EJECUTAR": "GOBERNACIÓN",
  "HABITANTES": 18000,
  "DESESCOLARIDAD_2019_2023": 200,
  "DESESCOLARIDAD_2024_2027": 5
 },
 {
  "DEPARTAMENTO": "SANTANDER",
  "MUNICIPIO": "FLORIDABLANCA",
  "LONGITUD": -73.8647,
  "LATITUD": 7.0676,
  "VEREDA_BARRIO": "VEREDA",
  "NOMBRE": "VERICUTE",
  "GESTION": "OPTIMIZAR",
  "CARENCIA": "PUENTE",
  "NOMBRE_GRUPO_ARMADO": "ZONA 4",
  "FACTOR": "FACTOR DE INFRAESTRUCTURA",
  "FACTOR_SIMPLIFICADO": "INFRAESTRUCTURA",
  "ACTOR_A_EJECUTAR": "GOBERNACIÓN",
  "HABITANTES": 18000,
  "DESESCOLARIDAD_2019_2023": 200,
  "DESESCOLARIDAD_2024_2027": 5
 },
 {
  "DEPARTAMENTO": "SANTANDER",
  "MUNICIPIO": "FLORIDABLANCA",
  "LONGITUD": -73.8647,
  "LATITUD": 7.0676,
  "VEREDA_BARRIO": "VEREDA",
  "NOMBRE": "VERICUTE",
  "GESTION": "CREAR",
  "CARENCIA": "ANTENA TELEFONICA",
  "NOMBRE_GRUPO_ARMADO": "ZONA 5",
  "FACTOR": "FACTOR DE INFRAESTRUCTURA",
  "FACTOR_SIMPLIFICADO": "INFRAESTRUCTURA",
  "ACTOR_A_EJECUTAR": "GOBERNACIÓN",
  "HABITANTES": 18000,
  "DESESCOLARIDAD_2019_2023": 200,
  "DESESCOLARIDAD_2024_2027": 5
 },
 {
  "DEPARTAMENTO": "SANTANDER",
  "MUNICIPIO": "FLORIDABLANCA",
  "LONGITUD": -73.8647,
  "LATITUD": 7.0676,
  "VEREDA_BARRIO": "VEREDA",
  "NOMBRE": "VERICUTE",
  "GESTION": "OPTIMIZAR",
  "CARENCIA": "CONTAMINACIÓN QUEBRADA",
  "NOMBRE_GRUPO_ARMADO": "NOMBRE QUEBRADA",
  "FACTOR": "FACTOR AMBIENTAL",
  "FACTOR_SIMPLIFICADO": "AMBIENTAL",
  "ACTOR_A_EJECUTAR": "GOBERNACIÓN",
  "HABITANTES": 18000,
  "DESESCOLARIDAD_2019_2023": 200,
  "DESESCOLARIDAD_2024_2027": 5
 },
 {
  "DEPARTAMENTO": "SANTANDER",
  "MUNICIPIO": "FLORIDABLANCA",
  "LONGITUD": -73.8647,
  "LATITUD": 7.0676,
  "VEREDA_BARRIO": "VEREDA",
  "NOMBRE": "VERICUTE",
  "GESTION": "OPTIMIZAR",
  "CARENCIA": "TALA DE ARBOLES",
  "NOMBRE_GRUPO_ARMADO": "ZONA 2",
  "FACTOR": "FACTOR AMBIENTAL",
  "FACTOR_SIMPLIFICADO": "AMBIENTAL",
  "ACTOR_A_EJECUTAR": "GOBERNACIÓN",
  "HABITANTES": 18000,
  "DESESCOLARIDAD_2019_2023": 200,
  "DESESCOLARIDAD_2024_2027": 5
 },
 {
  "DEPARTAMENTO": "SANTANDER",
  "MUNICIPIO": "FLORIDABLANCA",
  "LONGITUD": -73.8647,
  "LATITUD": 7.0676,
  "VEREDA_BARRIO": "VEREDA",
  "NOMBRE": "VERICUTE",
  "GESTION": "OPTIMIZAR",
  "CARENCIA": "TALA DE ARBOLES",
  "NOMBRE_GRUPO_ARMADO": "ZONA 3",
  "FACTOR": "FACTOR AMBIENTAL",
  "FACTOR_SIMPLIFICADO": "AMBIENTAL",
  "ACTOR_A_EJECUTAR": "GOBERNACIÓN",
  "HABITANTES": 18000,
  "DESESCOLARIDAD_2019_2023": 200,
  "DESESCOLARIDAD_2024_2027": 5
 },
 {
  "DEPARTAMENTO": "SANTANDER",
  "MUNICIPIO": "FLORIDABLANCA",
  "LONGITUD": -73.8647,
  "LATITUD": 7.0676,
  "VEREDA_BARRIO": "VEREDA",
  "NOMBRE": "HELECHALES",
  "GESTION": "OPTIMIZAR",
  "CARENCIA": "VÍA",
  "NOMBRE_GRUPO_ARMADO": "ZONA 6",
  "FACTOR": "FACTOR DE INFRAESTRUCTURA",
  "FACTOR_SIMPLIFICADO": "INFRAESTRUCTURA",
  "ACTOR_A_EJECUTAR": "GOBERNACIÓN",
  "HABITANTES": 18000,
  "DESESCOLARIDAD_2019_2023": 200,
  "DESESCOLARIDAD_2024_2027": 5
 },
 {
  "DEPARTAMENTO": "SANTANDER",
  "MUNICIPIO": "FLORIDABLANCA",
  "LONGITUD": -73.8647,
  "LATITUD": 7.0676,
  "VEREDA_BARRIO": "VEREDA",
  "NOMBRE": "HELECHALES",
  "GESTION": "OPTIMIZAR",
  "CARENCIA": "PLACA HUELLA",
  "NOMBRE_GRUPO_ARMADO": "ZONA 7",
  "FACTOR": "FACTOR DE INFRAESTRUCTURA",
  "FACTOR_SIMPLIFICADO": "INFRAESTRUCTURA",
  "ACTOR_A_EJECUTAR": "GOBIERNO",
  "HABITANTES": 18000,
  "DESESCOLARIDAD_2019_2023": 200,
  "DESESCOLARIDAD_2024_2027": 5
 },
 {
  "DEPARTAMENTO": "SANTANDER",
  "MUNICIPIO": "FLORIDABLANCA",
  "LONGITUD": -73.8647,
  "LATITUD": 7.0676,
  "VEREDA_BARRIO": "VEREDA",
  "NOMBRE": "HELECHALES",
  "GESTION": "CREAR",
  "CARENCIA": "PLACA HUELLA",
  "NOMBRE_GRUPO_ARMADO": "ZONA 8",
  "FACTOR": "FACTOR DE INFRAESTRUCTURA",
  "FACTOR_SIMPLIFICADO": "INFRAESTRUCTURA",
  "ACTOR_A_EJECUTAR": "ALCALDIA",
  "HABITANTES": 18000,
  "DESESCOLARIDAD_2019_2023": 200,
  "DESESCOLARIDAD_2024_2027": 5
 },
 {
  "DEPARTAMENTO": "SANTANDER",
  "MUNICIPIO": "FLORIDABLANCA",
  "LONGITUD": -73.8647,
  "LATITUD": 7.0676,
  "VEREDA_BARRIO": "VEREDA",
  "NOMBRE": "ALSACIA",
  "GESTION": "OPTIMIZAR",
  "CARENCIA": "CENTRO DEPORTIVO",
  "NOMBRE_GRUPO_ARMADO": "ZONA 9",
  "FACTOR": "FACTOR DE INFRAESTRUCTURA",
  "FACTOR_SIMPLIFICADO": "INFRAESTRUCTURA",
  "ACTOR_A_EJECUTAR": "ALCALDIA",
  "HABITANTES": 18000,
  "DESESCOLARIDAD_2019_2023": 200,
  "DESESCOLARIDAD_2024_2027": 5
 },
 {
  "DEPARTAMENTO": "SANTANDER",
  "MUNICIPIO": "FLORIDABLANCA",
  "LONGITUD": -73.8647,
  "LATITUD": 7.0676,
  "VEREDA_BARRIO": "VEREDA",
  "NOMBRE": "ALSACIA",
  "GESTION": "CREAR",
  "CARENCIA": "VIA",
  "NOMBRE_GRUPO_ARMADO": "ZONA 10",
  "FACTOR": "FACTOR DE INFRAESTRUCTURA",
  "FACTOR_SIMPLIFICADO": "INFRAESTRUCTURA",
  "ACTOR_A_EJECUTAR": "ALCALDIA",
  "HABITANTES": 18000,
  "DESESCOLARIDAD_2019_2023": 200,
  "DESESCOLARIDAD_2024_2027": 5
 },
 {
  "DEPARTAMENTO": "SANTANDER",
  "MUNICIPIO": "FLORIDABLANCA",
  "LONGITUD": -73.8647,
  "LATITUD": 7.0676,
  "VEREDA_BARRIO": "VEREDA",
  "NOMBRE": "CASIANO",
  "GESTION": "COMBATIR",
  "CARENCIA": "GRUPO ARMADO",
  "NOMBRE_GRUPO_ARMADO": "FARC",
  "FACTOR": "FACTOR DE SEGURIDAD",
  "FACTOR_SIMPLIFICADO": "SEGURIDAD",
  "ACTOR_A_EJECUTAR": "ALCALDIA",
  "HABITANTES": 18000,
  "DESESCOLARIDAD_2019_2023": 200,
  "DESESCOLARIDAD_2024_2027": 5
 },
 {
  "DEPARTAMENTO": "SANTANDER",
  "MUNICIPIO": "FLORIDABLANCA",
  "LONGITUD": -73.8647,
  "LATITUD": 7.0676,
  "VEREDA_BARRIO": "VEREDA",
  "NOMBRE": "CASIANO",
  "GESTION": "COMBATIR",
  "CARENCIA": "GRUPO ARMADO",
  "NOMBRE_GRUPO_ARMADO": "CLAN DEL GOLFO",
  "FACTOR": "FACTOR DE SEGURIDAD",
  "FACTOR_SIMPLIFICADO": "SEGURIDAD",
  "ACTOR_A_EJECUTAR": "ALCALDIA",
  "HABITANTES": 18000,
  "DESESCOLARIDAD_2019_2023": 200,
  "DESESCOLARIDAD_2024_2027": 5
 },
 {
  "DEPARTAMENTO": "SANTANDER",
  "MUNICIPIO": "FLORIDABLANCA",
  "LONGITUD": -73.8647,
  "LATITUD": 7.0676,
  "VEREDA_BARRIO": "VEREDA",
  "NOMBRE": "CASIANO",
  "GESTION": "CREAR",
  "CARENCIA": "HOSPITAL",
  "NOMBRE_GRUPO_ARMADO": "ZONA 10",
  "FACTOR": "FACTOR DE INFRAESTRUCTURA",
  "FACTOR_SIMPLIFICADO": "INFRAESTRUCTURA",
  "ACTOR_A_EJECUTAR": "GOBERNACIÓN",
  "HABITANTES": 18000,
  "DESESCOLARIDAD_2019_2023": 200,
  "DESESCOLARIDAD_2024_2027": 5
 },
 {
  "DEPARTAMENTO": "SANTANDER",
  "MUNICIPIO": "FLORIDABLANCA",
  "LONGITUD": -73.8647,
  "LATITUD": 7.0676,
  "VEREDA_BARRIO": "VEREDA",
  "NOMBRE": "CASIANO",
  "GESTION": "OPTIMIZAR",
  "CARENCIA": "ESCUELA",
  "NOMBRE_GRUPO_ARMADO": "NOMBRE LA INTITUCIÓN EDUCATIVA",
  "FACTOR": "FACTOR DE INFRAESTRUCTURA",
  "FACTOR_SIMPLIFICADO": "INFRAESTRUCTURA",
  "ACTOR_A_EJECUTAR": "GOBERNACIÓN",
  "HABITANTES": 18000,
  "DESESCOLARIDAD_2019_2023": 200,
  "DESESCOLARIDAD_2024_2027": 5
 },
 {
  "DEPARTAMENTO": "SANTANDER",
  "MUNICIPIO": "FLORIDABLANCA",
  "LONGITUD": -73.8647,
  "LATITUD": 7.0676,
  "VEREDA_BARRIO": "VEREDA",
  "NOMBRE": "CASIANO",
  "GESTION": "REPARAR",
  "CARENCIA": "ACUEDUCTO",
  "NOMBRE_GRUPO_ARMADO": "ZONA 12",
  "FACTOR": "FACTOR DE INFRAESTRUCTURA",
  "FACTOR_SIMPLIFICADO": "INFRAESTRUCTURA",
  "ACTOR_A_EJECUTAR": "GOBERNACIÓN",
  "HABITANTES": 18000,
  "DESESCOLARIDAD_2019_2023": 200,
  "DESESCOLARIDAD_2024_2027": 5
 },
 {
  "DEPARTAMENTO": "SANTANDER",
  "MUNICIPIO": "FLORIDABLANCA",
  "LONGITUD": -73.8647,
  "LATITUD": 7.0676,
  "VEREDA_BARRIO": "VEREDA",
  "NOMBRE": "GUAYANA",
  "GESTION": "OPTIMIZAR",
  "CARENCIA": "PUENTE",
  "NOMBRE_GRUPO_ARMADO": "ZONA 13",
  "FACTOR": "FACTOR DE INFRAESTRUCTURA",
  "FACTOR_SIMPLIFICADO": "INFRAESTRUCTURA",
  "ACTOR_A_EJECUTAR": "GOBERNACIÓN",
  "HABITANTES": 18000,
  "DESESCOLARIDAD_2019_2023": 200,
  "DESESCOLARIDAD_2024_2027": 5
 },
 {
  "DEPARTAMENTO": "SANTANDER",
  "MUNICIPIO": "FLORIDABLANCA",
  "LONGITUD": -73.8647,
  "LATITUD": 7.0676,
  "VEREDA_BARRIO": "VEREDA",
  "NOMBRE": "GUAYANA",
  "GESTION": "CREAR",
  "CARENCIA": "CAI",
  "NOMBRE_GRUPO_ARMADO": "ZONA 14",
  "FACTOR": "FACTOR DE SEGURIDAD",
  "FACTOR_SIMPLIFICADO": "SEGURIDAD",
  "ACTOR_A_EJECUTAR": "GOBERNACIÓN",
  "HABITANTES": 18000,
  "DESESCOLARIDAD_2019_2023": 200,
  "DESESCOLARIDAD_2024_2027": 5
 },
 {
  "DEPARTAMENTO": "SANTANDER",
  "MUNICIPIO": "FLORIDABLANCA",
  "LONGITUD": -73.8647,
  "LATITUD": 7.0676,
  "VEREDA_BARRIO": "ZONA URBANA",
  "NOMBRE": "ZONA URBANA",
  "GESTION": "COMBATIR",
  "CARENCIA": "MICROTAFICO",
  "NOMBRE_GRUPO_ARMADO": "CLAN DEL GOLFO",
  "FACTOR": "FACTOR DE SEGURIDAD",
  "FACTOR_SIMPLIFICADO": "SEGURIDAD",
  "ACTOR_A_EJECUTAR": "GOBERNACIÓN",
  "HABITANTES": 18000,
  "DESESCOLARIDAD_2019_2023": 200,
  "DESESCOLARIDAD_2024_2027": 5
 },
 {
  "DEPARTAMENTO": "SANTANDER",
  "MUNICIPIO": "FLORIDABLANCA",
  "LONGITUD": -73.8647,
  "LATITUD": 7.0676,
  "VEREDA_BARRIO": "ZONA URBANA",
  "NOMBRE": "ZONA URBANA",
  "GESTION": "COMBATIR",
  "CARENCIA": "MICROTAFICO",
  "NOMBRE_GRUPO_ARMADO": "CLAN DEL GOLFO",
  "FACTOR": "FACTOR DE SEGURIDAD",
  "FACTOR_SIMPLIFICADO": "SEGURIDAD",
  "ACTOR_A_EJECUTAR": "GOBERNACIÓN",
  "HABITANTES": 18000,
  "DESESCOLARIDAD_2019_2023": 200,
  "DESESCOLARIDAD_2024_2027": 5
 },
 {
  "DEPARTAMENTO": "SANTANDER",
  "MUNICIPIO": "FLORIDABLANCA",
  "LONGITUD": -73.8647,
  "LATITUD": 7.0676,
  "VEREDA_BARRIO": "ZONA URBANA",
  "NOMBRE": "ZONA URBANA",
  "GESTION": "COMBATIR",
  "CARENCIA": "MICROTAFICO",
  "NOMBRE_GRUPO_ARMADO": "CLAN DEL GOLFO",
  "FACTOR": "FACTOR DE SEGURIDAD",
  "FACTOR_SIMPLIFICADO": "SEGURIDAD",
  "ACTOR_A_EJECUTAR": "GOBERNACIÓN",
  "HABITANTES": 18000,
  "DESESCOLARIDAD_2019_2023": 200,
  "DESESCOLARIDAD_2024_2027": 5
 },
 {
  "DEPARTAMENTO": "SANTANDER",
  "MUNICIPIO": "FLORIDABLANCA",
  "LONGITUD": -73.8647,
  "LATITUD": 7.0676,
  "VEREDA_BARRIO": "ZONA URBANA",
  "NOMBRE": "ZONA URBANA",
  "GESTION": "COMBATIR",
  "CARENCIA": "MICROTAFICO",
  "NOMBRE_GRUPO_ARMADO": "CLAN DEL GOLFO",
  "FACTOR": "FACTOR DE SEGURIDAD",
  "FACTOR_SIMPLIFICADO": "SEGURIDAD",
  "ACTOR_A_EJECUTAR": "GOBERNACIÓN",
  "HABITANTES": 18000,
  "DESESCOLARIDAD_2019_2023": 200,
  "DESESCOLARIDAD_2024_2027": 5
 },
 {
  "DEPARTAMENTO": "SANTANDER",
  "MUNICIPIO": "FLORIDABLANCA",
  "LONGITUD": -73.8647,
  "LATITUD": 7.0676,
  "VEREDA_BARRIO": "ZONA URBANA",
  "NOMBRE": "ZONA URBANA",
  "GESTION": "COMBATIR",
  "CARENCIA": "MICROTAFICO",
  "NOMBRE_GRUPO_ARMADO": "CLAN DEL GOLFO",
  "FACTOR": "FACTOR DE SEGURIDAD",
  "FACTOR_SIMPLIFICADO": "SEGURIDAD",
  "ACTOR_A_EJECUTAR": "GOBERNACIÓN",
  "HABITANTES": 18000,
  "DESESCOLARIDAD_2019_2023": 200,
  "DESESCOLARIDAD_2024_2027": 5
 },
 {
  "DEPARTAMENTO": "SANTANDER",
  "MUNICIPIO": "FLORIDABLANCA",
  "LONGITUD": -73.8647,
  "LATITUD": 7.0676,
  "VEREDA_BARRIO": "ZONA URBANA",
  "NOMBRE": "ZONA URBANA",
  "GESTION": "COMBATIR",
  "CARENCIA": "MICROTAFICO",
  "NOMBRE_GRUPO_ARMADO": "CLAN DEL GOLFO",
  "FACTOR": "FACTOR DE SEGURIDAD",
  "FACTOR_SIMPLIFICADO": "SEGURIDAD",
  "ACTOR_A_EJECUTAR": "GOBERNACIÓN",
  "HABITANTES": 18000,
  "DESESCOLARIDAD_2019_2023": 200,
  "DESESCOLARIDAD_2024_2027": 5
 },
 {
  "DEPARTAMENTO": "SANTANDER",
  "MUNICIPIO": "FLORIDABLANCA",
  "LONGITUD": -73.8647,
  "LATITUD": 7.0676,
  "VEREDA_BARRIO": "ZONA URBANA",
  "NOMBRE": "ZONA URBANA",
  "GESTION": "COMBATIR",
  "CARENCIA": "MICROTAFICO",
  "NOMBRE_GRUPO_ARMADO": "CLAN DEL GOLFO",
  "FACTOR": "FACTOR DE SEGURIDAD",
  "FACTOR_SIMPLIFICADO": "SEGURIDAD",
  "ACTOR_A_EJECUTAR": "GOBERNACIÓN",
  "HABITANTES": 18000,
  "DESESCOLARIDAD_2019_2023": 200,
  "DESESCOLARIDAD_2024_2027": 5
 },
 {
  "DEPARTAMENTO": "SANTANDER",
  "MUNICIPIO": "FLORIDABLANCA",
  "LONGITUD": -73.8647,
  "LATITUD": 7.0676,
  "VEREDA_BARRIO": "ZONA URBANA",
  "NOMBRE": "ZONA URBANA",
  "GESTION": "COMBATIR",
  "CARENCIA": "MICROTAFICO",
  "NOMBRE_GRUPO_ARMADO": "CLAN DEL GOLFO",
  "FACTOR": "FACTOR DE SEGURIDAD",
  "FACTOR_SIMPLIFICADO": "SEGURIDAD",
  "ACTOR_A_EJECUTAR": "GOBERNACIÓN",
  "HABITANTES": 18000,
  "DESESCOLARIDAD_2019_2023": 200,
  "DESESCOLARIDAD_2024_2027": 5
 },
 {
  "DEPARTAMENTO": "SANTANDER",
  "MUNICIPIO": "FLORIDABLANCA",
  "LONGITUD": -73.8647,
  "LATITUD": 7.0676,
  "VEREDA_BARRIO": "ZONA URBANA",
  "NOMBRE": "ZONA URBANA",
  "GESTION": "COMBATIR",
  "CARENCIA": "MICROTAFICO",
  "NOMBRE_GRUPO_ARMADO": "ELN",
  "FACTOR": "FACTOR DE SEGURIDAD",
  "FACTOR_SIMPLIFICADO": "SEGURIDAD",
  "ACTOR_A_EJECUTAR": "GOBERNACIÓN",
  "HABITANTES": 18000,
  "DESESCOLARIDAD_2019_2023": 200,
  "DESESCOLARIDAD_2024_2027": 5
 },
 {
  "DEPARTAMENTO": "SANTANDER",
  "MUNICIPIO": "FLORIDABLANCA",
  "LONGITUD": -73.8647,
  "LATITUD": 7.0676,
  "VEREDA_BARRIO": "ZONA URBANA",
  "NOMBRE": "ZONA URBANA",
  "GESTION": "COMBATIR",
  "CARENCIA": "MICROTAFICO",
  "NOMBRE_GRUPO_ARMADO": "ELN",
  "FACTOR": "FACTOR DE SEGURIDAD",
  "FACTOR_SIMPLIFICADO": "SEGURIDAD",
  "ACTOR_A_EJECUTAR": "GOBIERNO",
  "HABITANTES": 18000,
  "DESESCOLARIDAD_2019_2023": 200,
  "DESESCOLARIDAD_2024_2027": 5
 },
 {
  "DEPARTAMENTO": "SANTANDER",
  "MUNICIPIO": "FLORIDABLANCA",
  "LONGITUD": -73.8647,
  "LATITUD": 7.0676,
  "VEREDA_BARRIO": "ZONA URBANA",
  "NOMBRE": "ZONA URBANA",
  "GESTION": "OPTIMIZAR",
  "CARENCIA": "HOSPITAL",
  "NOMBRE_GRUPO_ARMADO": "NOMBRE DEL HOSPITAL",
  "FACTOR": "FACTOR DE INFRAESTRUCTURA",
  "FACTOR_SIMPLIFICADO": "INFRAESTRUCTURA",
  "ACTOR_A_EJECUTAR": "GOBIERNO",
  "HABITANTES": 18000,
  "DESESCOLARIDAD_2019_2023": 200,
  "DESESCOLARIDAD_2024_2027": 5
 },
 {
  "DEPARTAMENTO": "SANTANDER",
  "MUNICIPIO": "FLORIDABLANCA",
  "LONGITUD": -73.8647,
  "LATITUD": 7.0676,
  "VEREDA_BARRIO": "ZONA URBANA",
  "NOMBRE": "ZONA URBANA",
  "GESTION": "OPTIMIZAR",
  "CARENCIA": "ESCUELA",
  "NOMBRE_GRUPO_ARMADO": "NOMBRE LA INTITUCIÓN EDUCATIVA",
  "FACTOR": "FACTOR DE INFRAESTRUCTURA",
  "FACTOR_SIMPLIFICADO": "INFRAESTRUCTURA",
  "ACTOR_A_EJECUTAR": "GOBIERNO",
  "HABITANTES": 18000,
  "DESESCOLARIDAD_2019_2023": 200,
  "DESESCOLARIDAD_2024_2027": 5
 },
 {
  "DEPARTAMENTO": "SANTANDER",
  "MUNICIPIO": "FLORIDABLANCA",
  "LONGITUD": -73.8647,
  "LATITUD": 7.0676,
  "VEREDA_BARRIO": "ZONA URBANA",
  "NOMBRE": "ZONA URBANA",
  "GESTION": "REPARAR",
  "CARENCIA": "HOSPITAL",
  "NOMBRE_GRUPO_ARMADO": "NOMBRE DEL HOSPITAL",
  "FACTOR": "FACTOR DE INFRAESTRUCTURA",
  "FACTOR_SIMPLIFICADO": "INFRAESTRUCTURA",
  "ACTOR_A_EJECUTAR": "GOBERNACIÓN",
  "HABITANTES": 18000,
  "DESESCOLARIDAD_2019_2023": 200,
  "DESESCOLARIDAD_2024_2027": 5
 },
 {
  "DEPARTAMENTO": "SANTANDER",
  "MUNICIPIO": "FLORIDABLANCA",
  "LONGITUD": -73.8647,
  "LATITUD": 7.0676,
  "VEREDA_BARRIO": "ZONA URBANA",
  "NOMBRE": "ZONA URBANA",
  "GESTION": "REPARAR",
  "CARENCIA": "ESCUELA",
  "NOMBRE_GRUPO_ARMADO": "NOMBRE LA INTITUCIÓN EDUCATIVA",
  "FACTOR": "FACTOR DE INFRAESTRUCTURA",
  "FACTOR_SIMPLIFICADO": "INFRAESTRUCTURA",
  "ACTOR_A_EJECUTAR": "GOBERNACIÓN",
  "HABITANTES": 18000,
  "DESESCOLARIDAD_2019_2023": 200,
  "DESESCOLARIDAD_2024_2027": 5
 },
 {
  "DEPARTAMENTO": "SANTANDER",
  "MUNICIPIO": "FLORIDABLANCA",
  "LONGITUD": -73.8647,
  "LATITUD": 7.0676,
  "VEREDA_BARRIO": "VEREDA",
  "NOMBRE": "RUITOQUE",
  "GESTION": "CREAR",
  "CARENCIA": "PUENTE",
  "NOMBRE_GRUPO_ARMADO": "ZONA 15",
  "FACTOR": "FACTOR DE INFRAESTRUCTURA",
  "FACTOR_SIMPLIFICADO": "INFRAESTRUCTURA",
  "ACTOR_A_EJECUTAR": "GOBIERNO",
  "HABITANTES": 18000,
  "DESESCOLARIDAD_2019_2023": 200,
  "DESESCOLARIDAD_2024_2027": 5
 },
 {
  "DEPARTAMENTO": "SANTANDER",
  "MUNICIPIO": "FLORIDABLANCA",
  "LONGITUD": -73.8647,
  "LATITUD": 7.0676,
  "VEREDA_BARRIO": "VEREDA",
  "NOMBRE": "RUITOQUE",
  "GESTION": "OPTIMIZAR",
  "CARENCIA": "ANTENA TELEFONICA",
  "NOMBRE_GRUPO_ARMADO": "16",
  "FACTOR": "FACTOR DE INFRAESTRUCTURA",
  "FACTOR_SIMPLIFICADO": "INFRAESTRUCTURA",
  "ACTOR_A_EJECUTAR": "GOBIERNO",
  "HABITANTES": 18000,
  "DESESCOLARIDAD_2019_2023": 200,
  "DESESCOLARIDAD_2024_2027": 5
 },
 {
  "DEPARTAMENTO": "SANTANDER",
  "MUNICIPIO": "FLORIDABLANCA",
  "LONGITUD": -73.8647,
  "LATITUD": 7.0676,
  "VEREDA_BARRIO": "VEREDA",
  "NOMBRE": "RUITOQUE",
  "GESTION": "OPTIMIZAR",
  "CARENCIA": "HOSPITAL",
  "NOMBRE_GRUPO_ARMADO": "NOMBRE DEL HOSPITAL",
  "FACTOR": "FACTOR DE INFRAESTRUCTURA",
  "FACTOR_SIMPLIFICADO": "INFRAESTRUCTURA",
  "ACTOR_A_EJECUTAR": "GOBIERNO",
  "HABITANTES": 18000,
  "DESESCOLARIDAD_2019_2023": 200,
  "DESESCOLARIDAD_2024_2027": 5
 },
 {
  "DEPARTAMENTO": "SANTANDER",
  "MUNICIPIO": "FLORIDABLANCA",
  "LONGITUD": -73.8647,
  "LATITUD": 7.0676,
  "VEREDA_BARRIO": "VEREDA",
  "NOMBRE": "RUITOQUE",
  "GESTION": "OPTIMIZAR",
  "CARENCIA": "ESCUELA",
  "NOMBRE_GRUPO_ARMADO": "NOMBRE LA INTITUCIÓN EDUCATIVA",
  "FACTOR": "FACTOR DE INFRAESTRUCTURA",
  "FACTOR_SIMPLIFICADO": "INFRAESTRUCTURA",
  "ACTOR_A_EJECUTAR": "GOBERNACIÓN",
  "HABITANTES": 18000,
  "DESESCOLARIDAD_2019_2023": 200,
  "DESESCOLARIDAD_2024_2027": 5
 },
 {
  "DEPARTAMENTO": "SANTANDER",
  "MUNICIPIO": "FLORIDABLANCA",
  "LONGITUD": -73.8647,
  "LATITUD": 7.0676,
  "VEREDA_BARRIO": "VEREDA",
  "NOMBRE": "RUITOQUE",
  "GESTION": "CREAR",
  "CARENCIA": "HOSPITAL",
  "NOMBRE_GRUPO_ARMADO": "ZONA 18",
  "FACTOR": "FACTOR DE INFRAESTRUCTURA",
  "FACTOR_SIMPLIFICADO": "INFRAESTRUCTURA",
  "ACTOR_A_EJECUTAR": "GOBERNACIÓN",
  "HABITANTES": 18000,
  "DESESCOLARIDAD_2019_2023": 200,
  "DESESCOLARIDAD_2024_2027": 5
 },
 {
  "DEPARTAMENTO": "SANTANDER",
  "MUNICIPIO": "FLORIDABLANCA",
  "LONGITUD": -73.8647,
  "LATITUD": 7.0676,
  "VEREDA_BARRIO": "VEREDA",
  "NOMBRE": "RIO FRIO",
  "GESTION": "CREAR",
  "CARENCIA": "CAI",
  "NOMBRE_GRUPO_ARMADO": "ZONA 20",
  "FACTOR": "FACTOR DE INFRAESTRUCTURA",
  "FACTOR_SIMPLIFICADO": "INFRAESTRUCTURA",
  "ACTOR_A_EJECUTAR": "GOBIERNO",
  "HABITANTES": 18000,
  "DESESCOLARIDAD_2019_2023": 200,
  "DESESCOLARIDAD_2024_2027": 5
 },
 {
  "DEPARTAMENTO": "SANTANDER",
  "MUNICIPIO": "FLORIDABLANCA",
  "LONGITUD": -73.8647,
  "LATITUD": 7.0676,
  "VEREDA_BARRIO": "VEREDA",
  "NOMBRE": "RIO FRIO",
  "GESTION": "OPTIMIZAR",
  "CARENCIA": "CAI",
  "NOMBRE_GRUPO_ARMADO": "ZONA 19",
  "FACTOR": "FACTOR DE SEGURIDAD",
  "FACTOR_SIMPLIFICADO": "SEGURIDAD",
  "ACTOR_A_EJECUTAR": "GOBERNACIÓN",
  "HABITANTES": 18000,
  "DESESCOLARIDAD_2019_2023": 200,
  "DESESCOLARIDAD_2024_2027": 5
 },
 {
  "DEPARTAMENTO": "SANTANDER",
  "MUNICIPIO": "FLORIDABLANCA",
  "LONGITUD": -73.8647,
  "LATITUD": 7.0676,
  "VEREDA_BARRIO": "VEREDA",
  "NOMBRE": "RIO FRIO",
  "GESTION": "OPTIMIZAR",
  "CARENCIA": "HOSPITAL",
  "NOMBRE_GRUPO_ARMADO": "ZONA 21",
  "FACTOR": "FACTOR DE SEGURIDAD",
  "FACTOR_SIMPLIFICADO": "SEGURIDAD",
  "ACTOR_A_EJECUTAR": "GOBIERNO",
  "HABITANTES": 18000,
  "DESESCOLARIDAD_2019_2023": 200,
  "DESESCOLARIDAD_2024_2027": 5
 },
 {
  "DEPARTAMENTO": "SANTANDER",
  "MUNICIPIO": "FLORIDABLANCA",
  "LONGITUD": -73.8647,
  "LATITUD": 7.0676,
  "VEREDA_BARRIO": "VEREDA",
  "NOMBRE": "RIO FRIO",
  "GESTION": "CREAR",
  "CARENCIA": "PUENTE",
  "NOMBRE_GRUPO_ARMADO": "ZONA 22",
  "FACTOR": "FACTOR DE INFRAESTRUCTURA",
  "FACTOR_SIMPLIFICADO": "INFRAESTRUCTURA",
  "ACTOR_A_EJECUTAR": "GOBERNACIÓN",
  "HABITANTES": 18000,
  "DESESCOLARIDAD_2019_2023": 200,
  "DESESCOLARIDAD_2024_2027": 5
 },
 {
  "DEPARTAMENTO": "SANTANDER",
  "MUNICIPIO": "FLORIDABLANCA",
  "LONGITUD": -73.8647,
  "LATITUD": 7.0676,
  "VEREDA_BARRIO": "VEREDA",
  "NOMBRE": "RIO FRIO",
  "GESTION": "COMBATIR",
  "CARENCIA": "CASERÍA",
  "NOMBRE_GRUPO_ARMADO": "ZONA 3",
  "FACTOR": "FACTOR DE INFRAESTRUCTURA",
  "FACTOR_SIMPLIFICADO": "INFRAESTRUCTURA",
  "ACTOR_A_EJECUTAR": "ALCALDIA",
  "HABITANTES": 18000,
  "DESESCOLARIDAD_2019_2023": 200,
  "DESESCOLARIDAD_2024_2027": 5
 },
 {
  "DEPARTAMENTO": "SANTANDER",
  "MUNICIPIO": "ALBANIA",
  "LONGITUD": -73.8623,
  "LATITUD": 7.0689,
  "VEREDA_BARRIO": "BARRIO",
  "NOMBRE": "AGUACATE",
  "GESTION": "MEJORAR",
  "CARENCIA": "PARQUE INFANTIL",
  "NOMBRE_GRUPO_ARMADO": "NOMBRE LA INTITUCIÓN EDUCATIVA",
  "FACTOR": "FACTOR SOCIAL Y CULTURAL",
  "FACTOR_SIMPLIFICADO": "SOCIAL Y CULTURAL",
  "ACTOR_A_EJECUTAR": "ALCALDIA",
  "HABITANTES": 20000,
  "DESESCOLARIDAD_2019_2023": 200,
  "DESESCOLARIDAD_2024_2027": 5
 },
 {
  "DEPARTAMENTO": "SANTANDER",
  "MUNICIPIO": "ALBANIA",
  "LONGITUD": -73.8567,
  "LATITUD": 7.0704,
  "VEREDA_BARRIO": "VEREDA",
  "NOMBRE": "ALTAMIRA",
  "GESTION": "CREAR",
  "CARENCIA": "PLAZA DE MERCADO",
  "NOMBRE_GRUPO_ARMADO": "NOMBRE LA INTITUCIÓN EDUCATIVA",
  "FACTOR": "FACTOR SOCIAL Y CULTURAL",
  "FACTOR_SIMPLIFICADO": "SOCIAL Y CULTURAL",
  "ACTOR_A_EJECUTAR": "GOBERNACION",
  "HABITANTES": 18000,
  "DESESCOLARIDAD_2019_2023": 200,
  "DESESCOLARIDAD_2024_2027": 5
 },
 {
  "DEPARTAMENTO": "SANTANDER",
  "MUNICIPIO": "ALBANIA",
  "LONGITUD": -73.8554,
  "LATITUD": 7.0702,
  "VEREDA_BARRIO": "BARRIO",
  "NOMBRE": "AYACUCHO",
  "GESTION": "COMBATIR",
  "CARENCIA": "MICROTRAFICO",
  "NOMBRE_GRUPO_ARMADO": "ZONA 4",
  "FACTOR": "FACTOR DE SEGURIDAD",
  "FACTOR_SIMPLIFICADO": "SEGURIDAD",
  "ACTOR_A_EJECUTAR": "GOBERNACION",
  "HABITANTES": 15000,
  "DESESCOLARIDAD_2019_2023": 200,
  "DESESCOLARIDAD_2024_2027": 5
 },
 {
  "DEPARTAMENTO": "SANTANDER",
  "MUNICIPIO": "ALBANIA",
  "LONGITUD": -73.8506,
  "LATITUD": 7.0587,
  "VEREDA_BARRIO": "BARRIO",
  "NOMBRE": "CANOAS",
  "GESTION": "CREAR",
  "CARENCIA": "BIBLIOTECA",
  "NOMBRE_GRUPO_ARMADO": "ZONA 5",
  "FACTOR": "FACTOR SOCIAL Y CULTURAL",
  "FACTOR_SIMPLIFICADO": "SOCIAL Y CULTURAL",
  "ACTOR_A_EJECUTAR": "GOBERNACION",
  "HABITANTES": 18000,
  "DESESCOLARIDAD_2019_2023": 200,
  "DESESCOLARIDAD_2024_2027": 5
 },
 {
  "DEPARTAMENTO": "SANTANDER",
  "MUNICIPIO": "ALBANIA",
  "LONGITUD": -73.8618,
  "LATITUD": 7.0707,
  "VEREDA_BARRIO": "BARRIO",
  "NOMBRE": "CANUTILLO",
  "GESTION": "CREAR",
  "CARENCIA": "ESCUELA",
  "NOMBRE_GRUPO_ARMADO": "NOMBRE QUEBRADA",
  "FACTOR": "FACTOR EDUCACION",
  "FACTOR_SIMPLIFICADO": "EDUCACION",
  "ACTOR_A_EJECUTAR": "GOBERNACION",
  "HABITANTES": 20000,
  "DESESCOLARIDAD_2019_2023": 200,
  "DESESCOLARIDAD_2024_2027": 5
 },
 {
  "DEPARTAMENTO": "SANTANDER",
  "MUNICIPIO": "ALBANIA",
  "LONGITUD": -73.8603,
  "LATITUD": 7.0657,
  "VEREDA_BARRIO": "VEREDA",
  "NOMBRE": "CARRETERO",
  "GESTION": "MEJORAR",
  "CARENCIA": "CANCHA DE FUTBOL",
  "NOMBRE_GRUPO_ARMADO": "ZONA 2",
  "FACTOR": "FACTOR DEPORTIVO",
  "FACTOR_SIMPLIFICADO": "DEPORTIVO",
  "ACTOR_A_EJECUTAR": "ALCALDIA",
  "HABITANTES": 18000,
  "DESESCOLARIDAD_2019_2023": 200,
  "DESESCOLARIDAD_2024_2027": 5
 },
 {
  "DEPARTAMENTO": "SANTANDER",
  "MUNICIPIO": "ALBANIA",
  "LONGITUD": -73.8575,
  "LATITUD": 7.0667,
  "VEREDA_BARRIO": "BARRIO",
  "NOMBRE": "CHEBRE",
  "GESTION": "COMBATIR",
  "CARENCIA": "CONSUMO DE DROGAS",
  "NOMBRE_GRUPO_ARMADO": "ZONA 3",
  "FACTOR": "FACTOR DE SEGURIDAD",
  "FACTOR_SIMPLIFICADO": "SEGURIDAD",
  "ACTOR_A_EJECUTAR": "GOBERNACION",
  "HABITANTES": 17000,
  "DESESCOLARIDAD_2019_2023": 200,
  "DESESCOLARIDAD_2024_2027": 5
 },
 {
  "DEPARTAMENTO": "SANTANDER",
  "MUNICIPIO": "ALBANIA",
  "LONGITUD": -73.8625,
  "LATITUD": 7.0687,
  "VEREDA_BARRIO": "BARRIO",
  "NOMBRE": "CORCONDILLA",
  "GESTION": "CREAR",
  "CARENCIA": "BIBLIOTECA",
  "NOMBRE_GRUPO_ARMADO": "ZONA 6",
  "FACTOR": "FACTOR SOCIAL Y CULTURAL",
  "FACTOR_SIMPLIFICADO": "SOCIAL Y CULTURAL",
  "ACTOR_A_EJECUTAR": "GOBERNACION",
  "HABITANTES": 19000,
  "DESESCOLARIDAD_2019_2023": 200,
  "DESESCOLARIDAD_2024_2027": 5
 },
 {
  "DEPARTAMENTO": "SANTANDER",
  "MUNICIPIO": "ALBANIA",
  "LONGITUD": -73.8637,
  "LATITUD": 7.0636,
  "VEREDA_BARRIO": "BARRIO",
  "NOMBRE": "ELHATILLO",
  "GESTION": "COMBATIR",
  "CARENCIA": "CONSUMO DE DROGAS",
  "NOMBRE_GRUPO_ARMADO": "ZONA 7",
  "FACTOR": "FACTOR DE SEGURIDAD",
  "FACTOR_SIMPLIFICADO": "SEGURIDAD",
  "ACTOR_A_EJECUTAR": "GOBERNACION",
  "HABITANTES": 15000,
  "DESESCOLARIDAD_2019_2023": 200,
  "DESESCOLARIDAD_2024_2027": 5
 },
 {
  "DEPARTAMENTO": "SANTANDER",
  "MUNICIPIO": "ALBANIA",
  "LONGITUD": -73.862,
  "LATITUD": 7.0704,
  "VEREDA_BARRIO": "VEREDA",
  "NOMBRE": "ELTABLON",
  "GESTION": "COMBATIR",
  "CARENCIA": "CONSUMO DE DROGAS",
  "NOMBRE_GRUPO_ARMADO": "ZONA 8",
  "FACTOR": "FACTOR DE SEGURIDAD",
  "FACTOR_SIMPLIFICADO": "SEGURIDAD",
  "ACTOR_A_EJECUTAR": "GOBERNACION",
  "HABITANTES": 17000,
  "DESESCOLARIDAD_2019_2023": 200,
  "DESESCOLARIDAD_2024_2027": 5
 },
 {
  "DEPARTAMENTO": "SANTANDER",
  "MUNICIPIO": "ALBANIA",
  "LONGITUD": -73.8642,
  "LATITUD": 7.0691,
  "VEREDA_BARRIO": "BARRIO",
  "NOMBRE": "GUACOS",
  "GESTION": "CREAR",
  "CARENCIA": "CENTRO DE RECREACION",
  "NOMBRE_GRUPO_ARMADO": "ZONA 9",
  "FACTOR": "FACTOR SOCIAL Y CULTURAL",
  "FACTOR_SIMPLIFICADO": "SOCIAL Y CULTURAL",
  "ACTOR_A_EJECUTAR": "GOBERNACION",
  "HABITANTES": 16000,
  "DESESCOLARIDAD_2019_2023": 200,
  "DESESCOLARIDAD_2024_2027": 5
 },
 {
  "DEPARTAMENTO": "SANTANDER",
  "MUNICIPIO": "ALBANIA",
  "LONGITUD": -73.8632,
  "LATITUD": 7.0722,
  "VEREDA_BARRIO": "VEREDA",
  "NOMBRE": "GUAYABAL",
  "GESTION": "COMBATIR",
  "CARENCIA": "CONSUMO DE DROGAS",
  "NOMBRE_GRUPO_ARMADO": "ZONA 10",
  "FACTOR": "FACTOR DE SEGURIDAD",
  "FACTOR_SIMPLIFICADO": "SEGURIDAD",
  "ACTOR_A_EJECUTAR": "GOBERNACION",
  "HABITANTES": 14000,
  "DESESCOLARIDAD_2019_2023": 200,
  "DESESCOLARIDAD_2024_2027": 5
 },
 {
  "DEPARTAMENTO": "SANTANDER",
  "MUNICIPIO": "ALBANIA",
  "LONGITUD": -73.8591,
  "LATITUD": 7.0724,
  "VEREDA_BARRIO": "VEREDA",
  "NOMBRE": "HONDA",
  "GESTION": "CREAR",
  "CARENCIA": "ESCUELA",
  "NOMBRE_GRUPO_ARMADO": "FARC",
  "FACTOR": "FACTOR EDUCACION",
  "FACTOR_SIMPLIFICADO": "EDUCACION",
  "ACTOR_A_EJECUTAR": "GOBERNACION",
  "HABITANTES": 18000,
  "DESESCOLARIDAD_2019_2023": 200,
  "DESESCOLARIDAD_2024_2027": 5
 },
 {
  "DEPARTAMENTO": "SANTANDER",
  "MUNICIPIO": "ALBANIA",
  "LONGITUD": -73.8596,
  "LATITUD": 7.0739,
  "VEREDA_BARRIO": "VEREDA",
  "NOMBRE": "LAMESA",
  "GESTION": "REPARAR",
  "CARENCIA": "ALUMBRADO PUBLICO",
  "NOMBRE_GRUPO_ARMADO": "CLAN DEL GOLFO",
  "FACTOR": "FACTOR DE INFRAESTRUCTURA",
  "FACTOR_SIMPLIFICADO": "INFRAESTRUCTURA",
  "ACTOR_A_EJECUTAR": "ALCALDIA",
  "HABITANTES": 18000,
  "DESESCOLARIDAD_2019_2023": 200,
  "DESESCOLARIDAD_2024_2027": 5
 },
 {
  "DEPARTAMENTO": "SANTANDER",
  "MUNICIPIO": "ALBANIA",
  "LONGITUD": -73.8604,
  "LATITUD": 7.071,
  "VEREDA_BARRIO": "VEREDA",
  "NOMBRE": "MEDIOS",
  "GESTION": "CREAR",
  "CARENCIA": "ESCUELA",
  "NOMBRE_GRUPO_ARMADO": "ZONA 10",
  "FACTOR": "FACTOR EDUCACION",
  "FACTOR_SIMPLIFICADO": "EDUCACION",
  "ACTOR_A_EJECUTAR": "GOBERNACION",
  "HABITANTES": 17000,
  "DESESCOLARIDAD_2019_2023": 200,
  "DESESCOLARIDAD_2024_2027": 5
 },
 {
  "DEPARTAMENTO": "SANTANDER",
  "MUNICIPIO": "ALBANIA",
  "LONGITUD": -73.8617,
  "LATITUD": 7.0703,
  "VEREDA_BARRIO": "VEREDA",
  "NOMBRE": "MESAGRANDE",
  "GESTION": "REPARAR",
  "CARENCIA": "CANCHA DEPORTIVA",
  "NOMBRE_GRUPO_ARMADO": "NOMBRE LA INTITUCIÓN EDUCATIVA",
  "FACTOR": "FACTOR DEPORTIVO",
  "FACTOR_SIMPLIFICADO": "DEPORTIVO",
  "ACTOR_A_EJECUTAR": "ALCALDIA",
  "HABITANTES": 16000,
  "DESESCOLARIDAD_2019_2023": 200,
  "DESESCOLARIDAD_2024_2027": 5
 },
 {
  "DEPARTAMENTO": "SANTANDER",
  "MUNICIPIO": "ALBANIA",
  "LONGITUD": -73.8648,
  "LATITUD": 7.0769,
  "VEREDA_BARRIO": "BARRIO",
  "NOMBRE": "MOCHILA",
  "GESTION": "COMBATIR",
  "CARENCIA": "MICROTRAFICO",
  "NOMBRE_GRUPO_ARMADO": "ZONA 12",
  "FACTOR": "FACTOR DE SEGURIDAD",
  "FACTOR_SIMPLIFICADO": "SEGURIDAD",
  "ACTOR_A_EJECUTAR": "GOBERNACION",
  "HABITANTES": 17000,
  "DESESCOLARIDAD_2019_2023": 200,
  "DESESCOLARIDAD_2024_2027": 5
 },
 {
  "DEPARTAMENTO": "SANTANDER",
  "MUNICIPIO": "ALBANIA",
  "LONGITUD": -73.862,
  "LATITUD": 7.0728,
  "VEREDA_BARRIO": "VEREDA",
  "NOMBRE": "PANDEAZUCAR",
  "GESTION": "CREAR",
  "CARENCIA": "PARQUE INFANTIL",
  "NOMBRE_GRUPO_ARMADO": "ZONA 13",
  "FACTOR": "FACTOR SOCIAL Y CULTURAL",
  "FACTOR_SIMPLIFICADO": "SOCIAL Y CULTURAL",
  "ACTOR_A_EJECUTAR": "GOBERNACION",
  "HABITANTES": 16000,
  "DESESCOLARIDAD_2019_2023": 200,
  "DESESCOLARIDAD_2024_2027": 5
 },
 {
  "DEPARTAMENTO": "SANTANDER",
  "MUNICIPIO": "ALBANIA",
  "LONGITUD": -73.8583,
  "LATITUD": 7.0718,
  "VEREDA_BARRIO": "VEREDA",
  "NOMBRE": "PANTANOS",
  "GESTION": "REPARAR",
  "CARENCIA": "ALUMBRADO PUBLICO",
  "NOMBRE_GRUPO_ARMADO": "ZONA 14",
  "FACTOR": "FACTOR DE INFRAESTRUCTURA",
  "FACTOR_SIMPLIFICADO": "INFRAESTRUCTURA",
  "ACTOR_A_EJECUTAR": "ALCALDIA",
  "HABITANTES": 19000,
  "DESESCOLARIDAD_2019_2023": 200,
  "DESESCOLARIDAD_2024_2027": 5
 },
 {
  "DEPARTAMENTO": "SANTANDER",
  "MUNICIPIO": "ALBANIA",
  "LONGITUD": -73.8582,
  "LATITUD": 7.0661,
  "VEREDA_BARRIO": "VEREDA",
  "NOMBRE": "PLAYAS",
  "GESTION": "MEJORAR",
  "CARENCIA": "CENTRO DE SALUD",
  "NOMBRE_GRUPO_ARMADO": "CLAN DEL GOLFO",
  "FACTOR": "FACTOR DE SALUD",
  "FACTOR_SIMPLIFICADO": "SALUD",
  "ACTOR_A_EJECUTAR": "ALCALDIA",
  "HABITANTES": 19000,
  "DESESCOLARIDAD_2019_2023": 200,
  "DESESCOLARIDAD_2024_2027": 5
 },
 {
  "DEPARTAMENTO": "SANTANDER",
  "MUNICIPIO": "ALBANIA",
  "LONGITUD": -73.863,
  "LATITUD": 7.0708,
  "VEREDA_BARRIO": "BARRIO",
  "NOMBRE": "POTREROS",
  "GESTION": "REPARAR",
  "CARENCIA": "ALUMBRADO PUBLICO",
  "NOMBRE_GRUPO_ARMADO": "CLAN DEL GOLFO",
  "FACTOR": "FACTOR DE INFRAESTRUCTURA",
  "FACTOR_SIMPLIFICADO": "INFRAESTRUCTURA",
  "ACTOR_A_EJECUTAR": "ALCALDIA",
  "HABITANTES": 17000,
  "DESESCOLARIDAD_2019_2023": 200,
  "DESESCOLARIDAD_2024_2027": 5
 },
 {
  "DEPARTAMENTO": "SANTANDER",
  "MUNICIPIO": "ALBANIA",
  "LONGITUD": -73.849,
  "LATITUD": 7.0703,
  "VEREDA_BARRIO": "BARRIO",
  "NOMBRE": "POVEDA",
  "GESTION": "CREAR",
  "CARENCIA": "PARQUE INFANTIL",
  "NOMBRE_GRUPO_ARMADO": "CLAN DEL GOLFO",
  "FACTOR": "FACTOR SOCIAL Y CULTURAL",
  "FACTOR_SIMPLIFICADO": "SOCIAL Y CULTURAL",
  "ACTOR_A_EJECUTAR": "GOBERNACION",
  "HABITANTES": 16000,
  "DESESCOLARIDAD_2019_2023": 200,
  "DESESCOLARIDAD_2024_2027": 5
 },
 {
  "DEPARTAMENTO": "SANTANDER",
  "MUNICIPIO": "ALBANIA",
  "LONGITUD": -73.857,
  "LATITUD": 7.067,
  "VEREDA_BARRIO": "VEREDA",
  "NOMBRE": "PUEBLOVIEJO",
  "GESTION": "REPARAR",
  "CARENCIA": "CENTRO DE SALUD",
  "NOMBRE_GRUPO_ARMADO": "CLAN DEL GOLFO",
  "FACTOR": "FACTOR DE SALUD",
  "FACTOR_SIMPLIFICADO": "SALUD",
  "ACTOR_A_EJECUTAR": "ALCALDIA",
  "HABITANTES": 17000,
  "DESESCOLARIDAD_2019_2023": 200,
  "DESESCOLARIDAD_2024_2027": 5
 },
 {
  "DEPARTAMENTO": "SANTANDER",
  "MUNICIPIO": "ALBANIA",
  "LONGITUD": -73.859,
  "LATITUD": 7.0702,
  "VEREDA_BARRIO": "VEREDA",
  "NOMBRE": "SABANETA",
  "GESTION": "CREAR",
  "CARENCIA": "HOSPITAL",
  "NOMBRE_GRUPO_ARMADO": "CLAN DEL GOLFO",
  "FACTOR": "FACTOR DE SALUD",
  "FACTOR_SIMPLIFICADO": "SALUD",
  "ACTOR_A_EJECUTAR": "GOBERNACION",
  "HABITANTES": 17000,
  "DESESCOLARIDAD_2019_2023": 200,
  "DESESCOLARIDAD_2024_2027": 5
 },
 {
  "DEPARTAMENTO": "SANTANDER",
  "MUNICIPIO": "ALBANIA",
  "LONGITUD": -73.8616,
  "LATITUD": 7.0698,
  "VEREDA_BARRIO": "VEREDA",
  "NOMBRE": "SALITRE",
  "GESTION": "COMBATIR",
  "CARENCIA": "TALA DE ARBOLES",
  "NOMBRE_GRUPO_ARMADO": "CLAN DEL GOLFO",
  "FACTOR": "FACTOR AMBIENTAL",
  "FACTOR_SIMPLIFICADO": "AMBIENTAL",
  "ACTOR_A_EJECUTAR": "GOBERNACION",
  "HABITANTES": 17000,
  "DESESCOLARIDAD_2019_2023": 200,
  "DESESCOLARIDAD_2024_2027": 5
 },
 {
  "DEPARTAMENTO": "SANTANDER",
  "MUNICIPIO": "ALBANIA",
  "LONGITUD": -73.8609,
  "LATITUD": 7.072,
  "VEREDA_BARRIO": "VEREDA",
  "NOMBRE": "SANPABLO",
  "GESTION": "MEJORAR",
  "CARENCIA": "PARQUE INFANTIL",
  "NOMBRE_GRUPO_ARMADO": "CLAN DEL GOLFO",
  "FACTOR": "FACTOR SOCIAL Y CULTURAL",
  "FACTOR_SIMPLIFICADO": "SOCIAL Y CULTURAL",
  "ACTOR_A_EJECUTAR": "ALCALDIA",
  "HABITANTES": 14000,
  "DESESCOLARIDAD_2019_2023": 200,
  "DESESCOLARIDAD_2024_2027": 5
 },
 {
  "DEPARTAMENTO": "SANTANDER",
  "MUNICIPIO": "ALBANIA",
  "LONGITUD": -73.8617,
  "LATITUD": 7.0678,
  "VEREDA_BARRIO": "VEREDA",
  "NOMBRE": "SANTARITA",
  "GESTION": "COMBATIR",
  "CARENCIA": "MICROTRAFICO",
  "NOMBRE_GRUPO_ARMADO": "CLAN DEL GOLFO",
  "FACTOR": "FACTOR DE SEGURIDAD",
  "FACTOR_SIMPLIFICADO": "SEGURIDAD",
  "ACTOR_A_EJECUTAR": "GOBERNACION",
  "HABITANTES": 16000,
  "DESESCOLARIDAD_2019_2023": 200,
  "DESESCOLARIDAD_2024_2027": 5
 },
 {
  "DEPARTAMENTO": "SANTANDER",
  "MUNICIPIO": "ALBANIA",
  "LONGITUD": -73.8605,
  "LATITUD": 7.0699,
  "VEREDA_BARRIO": "BARRIO",
  "NOMBRE": "UTAPA",
  "GESTION": "CREAR",
  "CARENCIA": "BIBLIOTECA",
  "NOMBRE_GRUPO_ARMADO": "ELN",
  "FACTOR": "FACTOR SOCIAL Y CULTURAL",
  "FACTOR_SIMPLIFICADO": "SOCIAL Y CULTURAL",
  "ACTOR_A_EJECUTAR": "GOBERNACION",
  "HABITANTES": 19000,
  "DESESCOLARIDAD_2019_2023": 200,
  "DESESCOLARIDAD_2024_2027": 5
 },
 {
  "DEPARTAMENTO": "SANTANDER",
  "MUNICIPIO": "ALBANIA",
  "LONGITUD": -73.8641,
  "LATITUD": 7.0697,
  "VEREDA_BARRIO": "VEREDA",
  "NOMBRE": "UVALES",
  "GESTION": "MEJORAR",
  "CARENCIA": "PARQUE INFANTIL",
  "NOMBRE_GRUPO_ARMADO": "ELN",
  "FACTOR": "FACTOR SOCIAL Y CULTURAL",
  "FACTOR_SIMPLIFICADO": "SOCIAL Y CULTURAL",
  "ACTOR_A_EJECUTAR": "ALCALDIA",
  "HABITANTES": 18000,
  "DESESCOLARIDAD_2019_2023": 200,
  "DESESCOLARIDAD_2024_2027": 5
 },
 {
  "DEPARTAMENTO": "SANTANDER",
  "MUNICIPIO": "ALBANIA",
  "LONGITUD": -73.8623,
  "LATITUD": 7.0744,
  "VEREDA_BARRIO": "VEREDA",
  "NOMBRE": "AGUACATE",
  "GESTION": "REPARAR",
  "CARENCIA": "ALUMBRADO PUBLICO",
  "NOMBRE_GRUPO_ARMADO": "NOMBRE DEL HOSPITAL",
  "FACTOR": "FACTOR DE INFRAESTRUCTURA",
  "FACTOR_SIMPLIFICADO": "INFRAESTRUCTURA",
  "ACTOR_A_EJECUTAR": "ALCALDIA",
  "HABITANTES": 15000,
  "DESESCOLARIDAD_2019_2023": 200,
  "DESESCOLARIDAD_2024_2027": 5
 },
 {
  "DEPARTAMENTO": "SANTANDER",
  "MUNICIPIO": "ALBANIA",
  "LONGITUD": -73.8598,
  "LATITUD": 7.0694,
  "VEREDA_BARRIO": "BARRIO",
  "NOMBRE": "ALTAMIRA",
  "GESTION": "COMBATIR",
  "CARENCIA": "MICROTRAFICO",
  "NOMBRE_GRUPO_ARMADO": "NOMBRE LA INTITUCIÓN EDUCATIVA",
  "FACTOR": "FACTOR DE SEGURIDAD",
  "FACTOR_SIMPLIFICADO": "SEGURIDAD",
  "ACTOR_A_EJECUTAR": "GOBERNACION",
  "HABITANTES": 19000,
  "DESESCOLARIDAD_2019_2023": 200,
  "DESESCOLARIDAD_2024_2027": 5
 },
 {
  "DEPARTAMENTO": "SANTANDER",
  "MUNICIPIO": "ALBANIA",
  "LONGITUD": -73.8559,
  "LATITUD": 7.072,
  "VEREDA_BARRIO": "BARRIO",
  "NOMBRE": "AYACUCHO",
  "GESTION": "COMBATIR",
  "CARENCIA": "MICROTRAFICO",
  "NOMBRE_GRUPO_ARMADO": "NOMBRE DEL HOSPITAL",
  "FACTOR": "FACTOR DE SEGURIDAD",
  "FACTOR_SIMPLIFICADO": "SEGURIDAD",
  "ACTOR_A_EJECUTAR": "GOBERNACION",
  "HABITANTES": 17000,
  "DESESCOLARIDAD_2019_2023": 200,
  "DESESCOLARIDAD_2024_2027": 5
 },
 {
  "DEPARTAMENTO": "SANTANDER",
  "MUNICIPIO": "ALBANIA",
  "LONGITUD": -73.8603,
  "LATITUD": 7.069,
  "VEREDA_BARRIO": "VEREDA",
  "NOMBRE": "CANOAS",
  "GESTION": "CREAR",
  "CARENCIA": "BIBLIOTECA",
  "NOMBRE_GRUPO_ARMADO": "NOMBRE LA INTITUCIÓN EDUCATIVA",
  "FACTOR": "FACTOR SOCIAL Y CULTURAL",
  "FACTOR_SIMPLIFICADO": "SOCIAL Y CULTURAL",
  "ACTOR_A_EJECUTAR": "GOBERNACION",
  "HABITANTES": 17000,
  "DESESCOLARIDAD_2019_2023": 200,
  "DESESCOLARIDAD_2024_2027": 5
 },
 {
  "DEPARTAMENTO": "SANTANDER",
  "MUNICIPIO": "ALBANIA",
  "LONGITUD": -73.8584,
  "LATITUD": 7.0711,
  "VEREDA_BARRIO": "VEREDA",
  "NOMBRE": "CANUTILLO",
  "GESTION": "MEJORAR",
  "CARENCIA": "PLAZA DE MERCADO",
  "NOMBRE_GRUPO_ARMADO": "ZONA 15",
  "FACTOR": "FACTOR SOCIAL Y CULTURAL",
  "FACTOR_SIMPLIFICADO": "SOCIAL Y CULTURAL",
  "ACTOR_A_EJECUTAR": "ALCALDIA",
  "HABITANTES": 19000,
  "DESESCOLARIDAD_2019_2023": 200,
  "DESESCOLARIDAD_2024_2027": 5
 },
 {
  "DEPARTAMENTO": "SANTANDER",
  "MUNICIPIO": "ALBANIA",
  "LONGITUD": -73.8592,
  "LATITUD": 7.072,
  "VEREDA_BARRIO": "BARRIO",
  "NOMBRE": "CARRETERO",
  "GESTION": "MEJORAR",
  "CARENCIA": "PARQUE INFANTIL",
  "NOMBRE_GRUPO_ARMADO": "16",
  "FACTOR": "FACTOR SOCIAL Y CULTURAL",
  "FACTOR_SIMPLIFICADO": "SOCIAL Y CULTURAL",
  "ACTOR_A_EJECUTAR": "ALCALDIA",
  "HABITANTES": 18000,
  "DESESCOLARIDAD_2019_2023": 200,
  "DESESCOLARIDAD_2024_2027": 5
 },
 {
  "DEPARTAMENTO": "SANTANDER",
  "MUNICIPIO": "ALBANIA",
  "LONGITUD": -73.8616,
  "LATITUD": 7.07,
  "VEREDA_BARRIO": "VEREDA",
  "NOMBRE": "CHEBRE",
  "GESTION": "MEJORAR",
  "CARENCIA": "CANCHA DEPORTIVA",
  "NOMBRE_GRUPO_ARMADO": "NOMBRE DEL HOSPITAL",
  "FACTOR": "FACTOR DEPORTIVO",
  "FACTOR_SIMPLIFICADO": "DEPORTIVO",
  "ACTOR_A_EJECUTAR": "ALCALDIA",
  "HABITANTES": 18000,
  "DESESCOLARIDAD_2019_2023": 200,
  "DESESCOLARIDAD_2024_2027": 5
 },
 {
  "DEPARTAMENTO": "SANTANDER",
  "MUNICIPIO": "ALBANIA",
  "LONGITUD": -73.8642,
  "LATITUD": 7.0702,
  "VEREDA_BARRIO": "VEREDA",
  "NOMBRE": "CORCONDILLA",
  "GESTION": "REPARAR",
  "CARENCIA": "ALUMBRADO PUBLICO",
  "NOMBRE_GRUPO_ARMADO": "NOMBRE LA INTITUCIÓN EDUCATIVA",
  "FACTOR": "FACTOR DE INFRAESTRUCTURA",
  "FACTOR_SIMPLIFICADO": "INFRAESTRUCTURA",
  "ACTOR_A_EJECUTAR": "ALCALDIA",
  "HABITANTES": 17000,
  "DESESCOLARIDAD_2019_2023": 200,
  "DESESCOLARIDAD_2024_2027": 5
 },
 {
  "DEPARTAMENTO": "SANTANDER",
  "MUNICIPIO": "ALBANIA",
  "LONGITUD": -73.8621,
  "LATITUD": 7.0647,
  "VEREDA_BARRIO": "VEREDA",
  "NOMBRE": "ELHATILLO",
  "GESTION": "MEJORAR",
  "CARENCIA": "PUENTE",
  "NOMBRE_GRUPO_ARMADO": "ZONA 18",
  "FACTOR": "FACTOR DE INFRAESTRUCTURA",
  "FACTOR_SIMPLIFICADO": "INFRAESTRUCTURA",
  "ACTOR_A_EJECUTAR": "ALCALDIA",
  "HABITANTES": 15000,
  "DESESCOLARIDAD_2019_2023": 200,
  "DESESCOLARIDAD_2024_2027": 5
 },
 {
  "DEPARTAMENTO": "SANTANDER",
  "MUNICIPIO": "ALBANIA",
  "LONGITUD": -73.8609,
  "LATITUD": 7.07,
  "VEREDA_BARRIO": "BARRIO",
  "NOMBRE": "ELTABLON",
  "GESTION": "REPARAR",
  "CARENCIA": "PARQUE INFANTIL",
  "NOMBRE_GRUPO_ARMADO": "ZONA 20",
  "FACTOR": "FACTOR SOCIAL Y CULTURAL",
  "FACTOR_SIMPLIFICADO": "SOCIAL Y CULTURAL",
  "ACTOR_A_EJECUTAR": "ALCALDIA",
  "HABITANTES": 19000,
  "DESESCOLARIDAD_2019_2023": 200,
  "DESESCOLARIDAD_2024_2027": 5
 },
 {
  "DEPARTAMENTO": "SANTANDER",
  "MUNICIPIO": "ALBANIA",
  "LONGITUD": -73.8631,
  "LATITUD": 7.0702,
  "VEREDA_BARRIO": "VEREDA",
  "NOMBRE": "GUACOS",
  "GESTION": "REPARAR",
  "CARENCIA": "ALUMBRADO PUBLICO",
  "NOMBRE_GRUPO_ARMADO": "ZONA 19",
  "FACTOR": "FACTOR DE INFRAESTRUCTURA",
  "FACTOR_SIMPLIFICADO": "INFRAESTRUCTURA",
  "ACTOR_A_EJECUTAR": "ALCALDIA",
  "HABITANTES": 16000,
  "DESESCOLARIDAD_2019_2023": 200,
  "DESESCOLARIDAD_2024_2027": 5
 },
 {
  "DEPARTAMENTO": "SANTANDER",
  "MUNICIPIO": "ALBANIA",
  "LONGITUD": -73.8595,
  "LATITUD": 7.0719,
  "VEREDA_BARRIO": "BARRIO",
  "NOMBRE": "GUAYABAL",
  "GESTION": "COMBATIR",
  "CARENCIA": "MICROTRAFICO",
  "NOMBRE_GRUPO_ARMADO": "ZONA 21",
  "FACTOR": "FACTOR DE SEGURIDAD",
  "FACTOR_SIMPLIFICADO": "SEGURIDAD",
  "ACTOR_A_EJECUTAR": "GOBERNACION",
  "HABITANTES": 16000,
  "DESESCOLARIDAD_2019_2023": 200,
  "DESESCOLARIDAD_2024_2027": 5
 },
 {
  "DEPARTAMENTO": "SANTANDER",
  "MUNICIPIO": "ALBANIA",
  "LONGITUD": -73.8583,
  "LATITUD": 7.0578,
  "VEREDA_BARRIO": "BARRIO",
  "NOMBRE": "HONDA",
  "GESTION": "CREAR",
  "CARENCIA": "PLAZOLETA",
  "NOMBRE_GRUPO_ARMADO": "ZONA 22",
  "FACTOR": "FACTOR SOCIAL Y CULTURAL",
  "FACTOR_SIMPLIFICADO": "SOCIAL Y CULTURAL",
  "ACTOR_A_EJECUTAR": "GOBERNACION",
  "HABITANTES": 12000,
  "DESESCOLARIDAD_2019_2023": 200,
  "DESESCOLARIDAD_2024_2027": 5
 },
 {
  "DEPARTAMENTO": "SANTANDER",
  "MUNICIPIO": "ALBANIA",
  "LONGITUD": -73.8608,
  "LATITUD": 7.0715,
  "VEREDA_BARRIO": "VEREDA",
  "NOMBRE": "LAMESA",
  "GESTION": "CREAR",
  "CARENCIA": "ESCUELA",
  "NOMBRE_GRUPO_ARMADO": "ZONA 3",
  "FACTOR": "FACTOR EDUCACION",
  "FACTOR_SIMPLIFICADO": "EDUCACION",
  "ACTOR_A_EJECUTAR": "GOBERNACION",
  "HABITANTES": 19000,
  "DESESCOLARIDAD_2019_2023": 200,
  "DESESCOLARIDAD_2024_2027": 5
 },
 {
  "DEPARTAMENTO": "SANTANDER",
  "MUNICIPIO": "ALBANIA",
  "LONGITUD": -73.8642,
  "LATITUD": 7.0552,
  "VEREDA_BARRIO": "VEREDA",
  "NOMBRE": "MEDIOS",
  "GESTION": "MEJORAR",
  "CARENCIA": "ALUMBRADO PUBLICO",
  "NOMBRE_GRUPO_ARMADO": "ELN",
  "FACTOR": "FACTOR DE INFRAESTRUCTURA",
  "FACTOR_SIMPLIFICADO": "INFRAESTRUCTURA",
  "ACTOR_A_EJECUTAR": "ALCALDIA",
  "HABITANTES": 16000,
  "DESESCOLARIDAD_2019_2023": 200,
  "DESESCOLARIDAD_2024_2027": 5
 },
 {
  "DEPARTAMENTO": "SANTANDER",
  "MUNICIPIO": "ALBANIA",
  "LONGITUD": -73.8512,
  "LATITUD": 7.0568,
  "VEREDA_BARRIO": "VEREDA",
  "NOMBRE": "MESAGRANDE",
  "GESTION": "REPARAR",
  "CARENCIA": "COLEGIO",
  "NOMBRE_GRUPO_ARMADO": "ELN",
  "FACTOR": "FACTOR DE EDUCACION",
  "FACTOR_SIMPLIFICADO": "EDUCACION",
  "ACTOR_A_EJECUTAR": "GOBIERNO",
  "HABITANTES": 14000,
  "DESESCOLARIDAD_2019_2023": 200,
  "DESESCOLARIDAD_2024_2027": 5
 },
 {
  "DEPARTAMENTO": "SANTANDER",
  "MUNICIPIO": "ALBANIA",
  "LONGITUD": -73.8577,
  "LATITUD": 7.0593,
  "VEREDA_BARRIO": "VEREDA",
  "NOMBRE": "MOCHILA",
  "GESTION": "REPARAR",
  "CARENCIA": "CANCHA DEPORTIVA",
  "NOMBRE_GRUPO_ARMADO": "ELN",
  "FACTOR": "FACTOR DE INFRAESTRUCTURA",
  "FACTOR_SIMPLIFICADO": "INFRAESTRUCTURA",
  "ACTOR_A_EJECUTAR": "ALCALDIA",
  "HABITANTES": 11000,
  "DESESCOLARIDAD_2019_2023": 200,
  "DESESCOLARIDAD_2024_2027": 5
 },
 {
  "DEPARTAMENTO": "SANTANDER",
  "MUNICIPIO": "ALBANIA",
  "LONGITUD": -73.8547,
  "LATITUD": 7.0698,
  "VEREDA_BARRIO": "BARRIO",
  "NOMBRE": "PANDEAZUCAR",
  "GESTION": "COMBATIR",
  "CARENCIA": "VANDALISMO",
  "NOMBRE_GRUPO_ARMADO": "ELN",
  "FACTOR": "FACTOR DE SEGURIDAD",
  "FACTOR_SIMPLIFICADO": "SEGURIDAD",
  "ACTOR_A_EJECUTAR": "GOBERNACION",
  "HABITANTES": 14000,
  "DESESCOLARIDAD_2019_2023": 200,
  "DESESCOLARIDAD_2024_2027": 5
 },
 {
  "DEPARTAMENTO": "SANTANDER",
  "MUNICIPIO": "ALBANIA",
  "LONGITUD": -73.8571,
  "LATITUD": 7.0716,
  "VEREDA_BARRIO": "VEREDA",
  "NOMBRE": "PANTANOS",
  "GESTION": "REPARAR",
  "CARENCIA": "ILUMINACION PUBLICA",
  "NOMBRE_GRUPO_ARMADO": "ELN",
  "FACTOR": "FACTOR DE INFRAESTRUCTURA",
  "FACTOR_SIMPLIFICADO": "INFRAESTRUCTURA",
  "ACTOR_A_EJECUTAR": "ALCALDIA",
  "HABITANTES": 15000,
  "DESESCOLARIDAD_2019_2023": 200,
  "DESESCOLARIDAD_2024_2027": 5
 },
 {
  "DEPARTAMENTO": "SANTANDER",
  "MUNICIPIO": "ALBANIA",
  "LONGITUD": -73.8639,
  "LATITUD": 7.0719,
  "VEREDA_BARRIO": "BARRIO",
  "NOMBRE": "PLAYAS",
  "GESTION": "REPARAR",
  "CARENCIA": "ALUMBRADO PUBLICO",
  "NOMBRE_GRUPO_ARMADO": "ELN",
  "FACTOR": "FACTOR DE INFRAESTRUCTURA",
  "FACTOR_SIMPLIFICADO": "INFRAESTRUCTURA",
  "ACTOR_A_EJECUTAR": "ALCALDIA",
  "HABITANTES": 16000,
  "DESESCOLARIDAD_2019_2023": 200,
  "DESESCOLARIDAD_2024_2027": 5
 },
 {
  "DEPARTAMENTO": "SANTANDER",
  "MUNICIPIO": "ALBANIA",
  "LONGITUD": -73.8536,
  "LATITUD": 7.0767,
  "VEREDA_BARRIO": "BARRIO",
  "NOMBRE": "POTREROS",
  "GESTION": "COMBATIR",
  "CARENCIA": "CONTAMINACION AMBIENTAL",
  "NOMBRE_GRUPO_ARMADO": "ELN",
  "FACTOR": "FACTOR AMBIENTAL",
  "FACTOR_SIMPLIFICADO": "AMBIENTAL",
  "ACTOR_A_EJECUTAR": "GOBERNACION",
  "HABITANTES": 17000,
  "DESESCOLARIDAD_2019_2023": 200,
  "DESESCOLARIDAD_2024_2027": 5
 },
 {
  "DEPARTAMENTO": "SANTANDER",
  "MUNICIPIO": "ALBANIA",
  "LONGITUD": -73.8612,
  "LATITUD": 7.0608,
  "VEREDA_BARRIO": "BARRIO",
  "NOMBRE": "POVEDA",
  "GESTION": "CREAR",
  "CARENCIA": "PARQUE",
  "NOMBRE_GRUPO_ARMADO": "ELN",
  "FACTOR": "FACTOR SOCIAL Y CULTURAL",
  "FACTOR_SIMPLIFICADO": "SOCIAL Y CULTURAL",
  "ACTOR_A_EJECUTAR": "GOBERNACION",
  "HABITANTES": 16000,
  "DESESCOLARIDAD_2019_2023": 200,
  "DESESCOLARIDAD_2024_2027": 5
 },
 {
  "DEPARTAMENTO": "SANTANDER",
  "MUNICIPIO": "ALBANIA",
  "LONGITUD": -73.8618,
  "LATITUD": 7.0682,
  "VEREDA_BARRIO": "BARRIO",
  "NOMBRE": "PUEBLOVIEJO",
  "GESTION": "REPARAR",
  "CARENCIA": "SALON COMUNAL",
  "NOMBRE_GRUPO_ARMADO": "ELN",
  "FACTOR": "FACTOR SOCIAL Y CULTURAL",
  "FACTOR_SIMPLIFICADO": "SOCIAL Y CULTURAL",
  "ACTOR_A_EJECUTAR": "ALCALDIA",
  "HABITANTES": 17000,
  "DESESCOLARIDAD_2019_2023": 200,
  "DESESCOLARIDAD_2024_2027": 5
 },
 {
  "DEPARTAMENTO": "SANTANDER",
  "MUNICIPIO": "ALBANIA",
  "LONGITUD": -73.8624,
  "LATITUD": 7.0691,
  "VEREDA_BARRIO": "VEREDA",
  "NOMBRE": "SABANETA",
  "GESTION": "CREAR",
  "CARENCIA": "HOSPITAL",
  "NOMBRE_GRUPO_ARMADO": "ELN",
  "FACTOR": "FACTOR DE SALUD",
  "FACTOR_SIMPLIFICADO": "SALUD",
  "ACTOR_A_EJECUTAR": "GOBERNACION",
  "HABITANTES": 16000,
  "DESESCOLARIDAD_2019_2023": 200,
  "DESESCOLARIDAD_2024_2027": 5
 },
 {
  "DEPARTAMENTO": "SANTANDER",
  "MUNICIPIO": "ALBANIA",
  "LONGITUD": -73.8586,
  "LATITUD": 7.0721,
  "VEREDA_BARRIO": "VEREDA",
  "NOMBRE": "SALITRE",
  "GESTION": "COMBATIR",
  "CARENCIA": "TALA DE ARBOLES",
  "NOMBRE_GRUPO_ARMADO": "ELN",
  "FACTOR": "FACTOR AMBIENTAL",
  "FACTOR_SIMPLIFICADO": "AMBIENTAL",
  "ACTOR_A_EJECUTAR": "GOBERNACION",
  "HABITANTES": 18000,
  "DESESCOLARIDAD_2019_2023": 200,
  "DESESCOLARIDAD_2024_2027": 5
 },
 {
  "DEPARTAMENTO": "SANTANDER",
  "MUNICIPIO": "ALBANIA",
  "LONGITUD": -73.855,
  "LATITUD": 7.0642,
  "VEREDA_BARRIO": "VEREDA",
  "NOMBRE": "SANPABLO",
  "GESTION": "REPARAR",
  "CARENCIA": "SALON COMUNAL",
  "NOMBRE_GRUPO_ARMADO": "ELN",
  "FACTOR": "FACTOR SOCIAL Y CULTURAL",
  "FACTOR_SIMPLIFICADO": "SOCIAL Y CULTURAL",
  "ACTOR_A_EJECUTAR": "ALCALDIA",
  "HABITANTES": 17000,
  "DESESCOLARIDAD_2019_2023": 200,
  "DESESCOLARIDAD_2024_2027": 5
 },
 {
  "DEPARTAMENTO": "SANTANDER",
  "MUNICIPIO": "ALBANIA",
  "LONGITUD": -73.8612,
  "LATITUD": 7.0685,
  "VEREDA_BARRIO": "BARRIO",
  "NOMBRE": "SANTARITA",
  "GESTION": "MEJORAR",
  "CARENCIA": "PLAZA DE MERCADO",
  "NOMBRE_GRUPO_ARMADO": "ELN",
  "FACTOR": "FACTOR SOCIAL Y CULTURAL",
  "FACTOR_SIMPLIFICADO": "SOCIAL Y CULTURAL",
  "ACTOR_A_EJECUTAR": "ALCALDIA",
  "HABITANTES": 20000,
  "DESESCOLARIDAD_2019_2023": 200,
  "DESESCOLARIDAD_2024_2027": 5
 },
 {
  "DEPARTAMENTO": "SANTANDER",
  "MUNICIPIO": "ALBANIA",
  "LONGITUD": -73.8599,
  "LATITUD": 7.0719,
  "VEREDA_BARRIO": "BARRIO",
  "NOMBRE": "UTAPA",
  "GESTION": "CREAR",
  "CARENCIA": "PLAZA DE MERCADO",
  "NOMBRE_GRUPO_ARMADO": "ELN",
  "FACTOR": "FACTOR SOCIAL Y CULTURAL",
  "FACTOR_SIMPLIFICADO": "SOCIAL Y CULTURAL",
  "ACTOR_A_EJECUTAR": "GOBERNACION",
  "HABITANTES": 19000,
  "DESESCOLARIDAD_2019_2023": 200,
  "DESESCOLARIDAD_2024_2027": 5
 },
 {
  "DEPARTAMENTO": "SANTANDER",
  "MUNICIPIO": "ALBANIA",
  "LONGITUD": -73.8564,
  "LATITUD": 7.0781,
  "VEREDA_BARRIO": "VEREDA",
  "NOMBRE": "UVALES",
  "GESTION": "REPARAR",
  "CARENCIA": "ALCANTARILLADO",
  "NOMBRE_GRUPO_ARMADO": "ELN",
  "FACTOR": "FACTOR DE INFRAESTRUCTURA",
  "FACTOR_SIMPLIFICADO": "INFRAESTRUCTURA",
  "ACTOR_A_EJECUTAR": "ALCALDIA",
  "HABITANTES": 16000,
  "DESESCOLARIDAD_2019_2023": 200,
  "DESESCOLARIDAD_2024_2027": 5
 },
 {
  "DEPARTAMENTO": "SANTANDER",
  "MUNICIPIO": "ALBANIA",
  "LONGITUD": -73.8543,
  "LATITUD": 7.0643,
  "VEREDA_BARRIO": "BARRIO",
  "NOMBRE": "AGUACATE",
  "GESTION": "COMBATIR",
  "CARENCIA": "VANDALISMO",
  "NOMBRE_GRUPO_ARMADO": "ELN",
  "FACTOR": "FACTOR DE SEGURIDAD",
  "FACTOR_SIMPLIFICADO": "SEGURIDAD",
  "ACTOR_A_EJECUTAR": "GOBERNACION",
  "HABITANTES": 16000,
  "DESESCOLARIDAD_2019_2023": 200,
  "DESESCOLARIDAD_2024_2027": 5
 },
 {
  "DEPARTAMENTO": "SANTANDER",
  "MUNICIPIO": "ALBANIA",
  "LONGITUD": -73.8613,
  "LATITUD": 7.07259999999999,
  "VEREDA_BARRIO": "VEREDA",
  "NOMBRE": "ALTAMIRA",
  "GESTION": "COMBATIR",
  "CARENCIA": "CONSUMO DE DROGAS",
  "NOMBRE_GRUPO_ARMADO": "ELN",
  "FACTOR": "FACTOR DE SEGURIDAD",
  "FACTOR_SIMPLIFICADO": "SEGURIDAD",
  "ACTOR_A_EJECUTAR": "GOBERNACION",
  "HABITANTES": 16000,
  "DESESCOLARIDAD_2019_2023": 200,
  "DESESCOLARIDAD_2024_2027": 5
 },
 {
  "DEPARTAMENTO": "SANTANDER",
  "MUNICIPIO": "ALBANIA",
  "LONGITUD": -73.861,
  "LATITUD": 7.0706,
  "VEREDA_BARRIO": "VEREDA",
  "NOMBRE": "AYACUCHO",
  "GESTION": "COMBATIR",
  "CARENCIA": "MICROTRAFICO",
  "NOMBRE_GRUPO_ARMADO": "ELN",
  "FACTOR": "FACTOR DE SEGURIDAD",
  "FACTOR_SIMPLIFICADO": "SEGURIDAD",
  "ACTOR_A_EJECUTAR": "GOBERNACION",
  "HABITANTES": 17000,
  "DESESCOLARIDAD_2019_2023": 200,
  "DESESCOLARIDAD_2024_2027": 5
 },
 {
  "DEPARTAMENTO": "SANTANDER",
  "MUNICIPIO": "ALBANIA",
  "LONGITUD": -73.8632,
  "LATITUD": 7.06,
  "VEREDA_BARRIO": "BARRIO",
  "NOMBRE": "CANOAS",
  "GESTION": "COMBATIR",
  "CARENCIA": "CONSUMO DE DROGAS",
  "NOMBRE_GRUPO_ARMADO": "ELN",
  "FACTOR": "FACTOR DE SEGURIDAD",
  "FACTOR_SIMPLIFICADO": "SEGURIDAD",
  "ACTOR_A_EJECUTAR": "GOBERNACION",
  "HABITANTES": 15000,
  "DESESCOLARIDAD_2019_2023": 200,
  "DESESCOLARIDAD_2024_2027": 5
 },
 {
  "DEPARTAMENTO": "SANTANDER",
  "MUNICIPIO": "ALBANIA",
  "LONGITUD": -73.8633,
  "LATITUD": 7.0701,
  "VEREDA_BARRIO": "VEREDA",
  "NOMBRE": "CANUTILLO",
  "GESTION": "MEJORAR",
  "CARENCIA": "CENTRO DE SALUD",
  "NOMBRE_GRUPO_ARMADO": "ELN",
  "FACTOR": "FACTOR DE SALUD",
  "FACTOR_SIMPLIFICADO": "SALUD",
  "ACTOR_A_EJECUTAR": "ALCALDIA",
  "HABITANTES": 17000,
  "DESESCOLARIDAD_2019_2023": 200,
  "DESESCOLARIDAD_2024_2027": 5
 },
 {
  "DEPARTAMENTO": "SANTANDER",
  "MUNICIPIO": "ALBANIA",
  "LONGITUD": -73.8615,
  "LATITUD": 7.0705,
  "VEREDA_BARRIO": "BARRIO",
  "NOMBRE": "CARRETERO",
  "GESTION": "COMBATIR",
  "CARENCIA": "CONSUMO DE DROGAS",
  "NOMBRE_GRUPO_ARMADO": "ELN",
  "FACTOR": "FACTOR DE SEGURIDAD",
  "FACTOR_SIMPLIFICADO": "SEGURIDAD",
  "ACTOR_A_EJECUTAR": "GOBERNACION",
  "HABITANTES": 19000,
  "DESESCOLARIDAD_2019_2023": 200,
  "DESESCOLARIDAD_2024_2027": 5
 },
 {
  "DEPARTAMENTO": "SANTANDER",
  "MUNICIPIO": "ALBANIA",
  "LONGITUD": -73.8595,
  "LATITUD": 7.0718,
  "VEREDA_BARRIO": "VEREDA",
  "NOMBRE": "CHEBRE",
  "GESTION": "CREAR",
  "CARENCIA": "ESCUELA",
  "NOMBRE_GRUPO_ARMADO": "NOMBRE LA INTITUCIÓN EDUCATIVA",
  "FACTOR": "FACTOR EDUCACION",
  "FACTOR_SIMPLIFICADO": "EDUCACION",
  "ACTOR_A_EJECUTAR": "GOBERNACION",
  "HABITANTES": 20000,
  "DESESCOLARIDAD_2019_2023": 200,
  "DESESCOLARIDAD_2024_2027": 5
 },
 {
  "DEPARTAMENTO": "SANTANDER",
  "MUNICIPIO": "ALBANIA",
  "LONGITUD": -73.8563,
  "LATITUD": 7.0731,
  "VEREDA_BARRIO": "BARRIO",
  "NOMBRE": "SALITRE",
  "GESTION": "CREAR",
  "CARENCIA": "PLAZA DE MERCADO",
  "NOMBRE_GRUPO_ARMADO": "NOMBRE LA INTITUCIÓN EDUCATIVA",
  "FACTOR": "FACTOR SOCIAL Y CULTURAL",
  "FACTOR_SIMPLIFICADO": "SOCIAL Y CULTURAL",
  "ACTOR_A_EJECUTAR": "GOBERNACION",
  "HABITANTES": 16000,
  "DESESCOLARIDAD_2019_2023": 200,
  "DESESCOLARIDAD_2024_2027": 5
 },
 {
  "DEPARTAMENTO": "SANTANDER",
  "MUNICIPIO": "ALBANIA",
  "LONGITUD": -73.8625,
  "LATITUD": 7.069,
  "VEREDA_BARRIO": "BARRIO",
  "NOMBRE": "SANPABLO",
  "GESTION": "MEJORAR",
  "CARENCIA": "BIBLIOTECA",
  "NOMBRE_GRUPO_ARMADO": "NOMBRE LA INTITUCIÓN EDUCATIVA",
  "FACTOR": "FACTOR SOCIAL Y CULTURAL",
  "FACTOR_SIMPLIFICADO": "SOCIAL Y CULTURAL",
  "ACTOR_A_EJECUTAR": "ALCALDIA",
  "HABITANTES": 17000,
  "DESESCOLARIDAD_2019_2023": 200,
  "DESESCOLARIDAD_2024_2027": 5
 },
 {
  "DEPARTAMENTO": "SANTANDER",
  "MUNICIPIO": "ALBANIA",
  "LONGITUD": -73.8605,
  "LATITUD": 7.0715,
  "VEREDA_BARRIO": "VEREDA",
  "NOMBRE": "SANTARITA",
  "GESTION": "CREAR",
  "CARENCIA": "ESCUELA",
  "NOMBRE_GRUPO_ARMADO": "NOMBRE LA INTITUCIÓN EDUCATIVA",
  "FACTOR": "FACTOR EDUCACION",
  "FACTOR_SIMPLIFICADO": "EDUCACION",
  "ACTOR_A_EJECUTAR": "GOBERNACION",
  "HABITANTES": 18000,
  "DESESCOLARIDAD_2019_2023": 200,
  "DESESCOLARIDAD_2024_2027": 5
 },
 {
  "DEPARTAMENTO": "SANTANDER",
  "MUNICIPIO": "ALBANIA",
  "LONGITUD": -73.8597,
  "LATITUD": 7.0712,
  "VEREDA_BARRIO": "VEREDA",
  "NOMBRE": "UTAPA",
  "GESTION": "COMBATIR",
  "CARENCIA": "MICROTRAFICO",
  "NOMBRE_GRUPO_ARMADO": "NOMBRE LA INTITUCIÓN EDUCATIVA",
  "FACTOR": "FACTOR DE SEGURIDAD",
  "FACTOR_SIMPLIFICADO": "SEGURIDAD",
  "ACTOR_A_EJECUTAR": "GOBERNACION",
  "HABITANTES": 18000,
  "DESESCOLARIDAD_2019_2023": 200,
  "DESESCOLARIDAD_2024_2027": 5
 },
 {
  "DEPARTAMENTO": "SANTANDER",
  "MUNICIPIO": "ALBANIA",
  "LONGITUD": -73.8617,
  "LATITUD": 7.0711,
  "VEREDA_BARRIO": "VEREDA",
  "NOMBRE": "UVALES",
  "GESTION": "MEJORAR",
  "CARENCIA": "CANCHA DEPORTIVA",
  "NOMBRE_GRUPO_ARMADO": "NOMBRE LA INTITUCIÓN EDUCATIVA",
  "FACTOR": "FACTOR DEPORTIVO",
  "FACTOR_SIMPLIFICADO": "DEPORTIVO",
  "ACTOR_A_EJECUTAR": "ALCALDIA",
  "HABITANTES": 18000,
  "DESESCOLARIDAD_2019_2023": 200,
  "DESESCOLARIDAD_2024_2027": 5
 },
 {
  "DEPARTAMENTO": "SANTANDER",
  "MUNICIPIO": "ALBANIA",
  "LONGITUD": -73.8490999999999,
  "LATITUD": 7.0689,
  "VEREDA_BARRIO": "BARRIO",
  "NOMBRE": "ALTAMIRA",
  "GESTION": "CREAR",
  "CARENCIA": "BIBLIOTECA",
  "NOMBRE_GRUPO_ARMADO": "NOMBRE LA INTITUCIÓN EDUCATIVA",
  "FACTOR": "FACTOR SOCIAL Y CULTURAL",
  "FACTOR_SIMPLIFICADO": "SOCIAL Y CULTURAL",
  "ACTOR_A_EJECUTAR": "GOBERNACION",
  "HABITANTES": 14000,
  "DESESCOLARIDAD_2019_2023": 200,
  "DESESCOLARIDAD_2024_2027": 5
 },
 {
  "DEPARTAMENTO": "SANTANDER",
  "MUNICIPIO": "ALBANIA",
  "LONGITUD": -73.8641,
  "LATITUD": 7.0697,
  "VEREDA_BARRIO": "BARRIO",
  "NOMBRE": "AYACUCHO",
  "GESTION": "COMBATIR",
  "CARENCIA": "MICROTRAFICO",
  "NOMBRE_GRUPO_ARMADO": "NOMBRE LA INTITUCIÓN EDUCATIVA",
  "FACTOR": "FACTOR DE SEGURIDAD",
  "FACTOR_SIMPLIFICADO": "SEGURIDAD",
  "ACTOR_A_EJECUTAR": "GOBERNACION",
  "HABITANTES": 18000,
  "DESESCOLARIDAD_2019_2023": 200,
  "DESESCOLARIDAD_2024_2027": 5
 },
 {
  "DEPARTAMENTO": "SANTANDER",
  "MUNICIPIO": "ALBANIA",
  "LONGITUD": -73.8589,
  "LATITUD": 7.0713,
  "VEREDA_BARRIO": "BARRIO",
  "NOMBRE": "CANOAS",
  "GESTION": "REPARAR",
  "CARENCIA": "ALUMBRADO PUBLICO",
  "NOMBRE_GRUPO_ARMADO": "NOMBRE LA INTITUCIÓN EDUCATIVA",
  "FACTOR": "FACTOR DE INFRAESTRUCTURA",
  "FACTOR_SIMPLIFICADO": "INFRAESTRUCTURA",
  "ACTOR_A_EJECUTAR": "ALCALDIA",
  "HABITANTES": 20000,
  "DESESCOLARIDAD_2019_2023": 200,
  "DESESCOLARIDAD_2024_2027": 5
 },
 {
  "DEPARTAMENTO": "SANTANDER",
  "MUNICIPIO": "ALBANIA",
  "LONGITUD": -73.8622,
  "LATITUD": 7.0695,
  "VEREDA_BARRIO": "VEREDA",
  "NOMBRE": "CANUTILLO",
  "GESTION": "CREAR",
  "CARENCIA": "HOSPITAL",
  "NOMBRE_GRUPO_ARMADO": "NOMBRE LA INTITUCIÓN EDUCATIVA",
  "FACTOR": "FACTOR DE SALUD",
  "FACTOR_SIMPLIFICADO": "SALUD",
  "ACTOR_A_EJECUTAR": "GOBERNACION",
  "HABITANTES": 19000,
  "DESESCOLARIDAD_2019_2023": 200,
  "DESESCOLARIDAD_2024_2027": 5
 },
 {
  "DEPARTAMENTO": "SANTANDER",
  "MUNICIPIO": "ALBANIA",
  "LONGITUD": -73.8623,
  "LATITUD": 7.0689,
  "VEREDA_BARRIO": "BARRIO",
  "NOMBRE": "CARRETERO",
  "GESTION": "MEJORAR",
  "CARENCIA": "PARQUE INFANTIL",
  "NOMBRE_GRUPO_ARMADO": "NOMBRE LA INTITUCIÓN EDUCATIVA",
  "FACTOR": "FACTOR SOCIAL Y CULTURAL",
  "FACTOR_SIMPLIFICADO": "SOCIAL Y CULTURAL",
  "ACTOR_A_EJECUTAR": "ALCALDIA",
  "HABITANTES": 20000,
  "DESESCOLARIDAD_2019_2023": 200,
  "DESESCOLARIDAD_2024_2027": 5
 },
 {
  "DEPARTAMENTO": "SANTANDER",
  "MUNICIPIO": "ALBANIA",
  "LONGITUD": -73.8567,
  "LATITUD": 7.0704,
  "VEREDA_BARRIO": "VEREDA",
  "NOMBRE": "CHEBRE",
  "GESTION": "CREAR",
  "CARENCIA": "PLAZA DE MERCADO",
  "NOMBRE_GRUPO_ARMADO": "NOMBRE LA INTITUCIÓN EDUCATIVA",
  "FACTOR": "FACTOR SOCIAL Y CULTURAL",
  "FACTOR_SIMPLIFICADO": "SOCIAL Y CULTURAL",
  "ACTOR_A_EJECUTAR": "GOBERNACION",
  "HABITANTES": 18000,
  "DESESCOLARIDAD_2019_2023": 200,
  "DESESCOLARIDAD_2024_2027": 5
 },
 {
  "DEPARTAMENTO": "SANTANDER",
  "MUNICIPIO": "ALBANIA",
  "LONGITUD": -73.8554,
  "LATITUD": 7.0702,
  "VEREDA_BARRIO": "BARRIO",
  "NOMBRE": "CORCONDILLA",
  "GESTION": "COMBATIR",
  "CARENCIA": "MICROTRAFICO",
  "NOMBRE_GRUPO_ARMADO": "ZONA 4",
  "FACTOR": "FACTOR DE SEGURIDAD",
  "FACTOR_SIMPLIFICADO": "SEGURIDAD",
  "ACTOR_A_EJECUTAR": "GOBERNACION",
  "HABITANTES": 15000,
  "DESESCOLARIDAD_2019_2023": 200,
  "DESESCOLARIDAD_2024_2027": 5
 },
 {
  "DEPARTAMENTO": "SANTANDER",
  "MUNICIPIO": "ALBANIA",
  "LONGITUD": -73.8506,
  "LATITUD": 7.0587,
  "VEREDA_BARRIO": "BARRIO",
  "NOMBRE": "ELHATILLO",
  "GESTION": "CREAR",
  "CARENCIA": "BIBLIOTECA",
  "NOMBRE_GRUPO_ARMADO": "ZONA 5",
  "FACTOR": "FACTOR SOCIAL Y CULTURAL",
  "FACTOR_SIMPLIFICADO": "SOCIAL Y CULTURAL",
  "ACTOR_A_EJECUTAR": "GOBERNACION",
  "HABITANTES": 18000,
  "DESESCOLARIDAD_2019_2023": 200,
  "DESESCOLARIDAD_2024_2027": 5
 },
 {
  "DEPARTAMENTO": "SANTANDER",
  "MUNICIPIO": "ALBANIA",
  "LONGITUD": -73.8618,
  "LATITUD": 7.0707,
  "VEREDA_BARRIO": "BARRIO",
  "NOMBRE": "ELTABLON",
  "GESTION": "CREAR",
  "CARENCIA": "ESCUELA",
  "NOMBRE_GRUPO_ARMADO": "NOMBRE QUEBRADA",
  "FACTOR": "FACTOR EDUCACION",
  "FACTOR_SIMPLIFICADO": "EDUCACION",
  "ACTOR_A_EJECUTAR": "GOBERNACION",
  "HABITANTES": 20000,
  "DESESCOLARIDAD_2019_2023": 200,
  "DESESCOLARIDAD_2024_2027": 5
 },
 {
  "DEPARTAMENTO": "SANTANDER",
  "MUNICIPIO": "ALBANIA",
  "LONGITUD": -73.8603,
  "LATITUD": 7.0657,
  "VEREDA_BARRIO": "VEREDA",
  "NOMBRE": "GUACOS",
  "GESTION": "MEJORAR",
  "CARENCIA": "CANCHA DE FUTBOL",
  "NOMBRE_GRUPO_ARMADO": "ZONA 2",
  "FACTOR": "FACTOR DEPORTIVO",
  "FACTOR_SIMPLIFICADO": "DEPORTIVO",
  "ACTOR_A_EJECUTAR": "ALCALDIA",
  "HABITANTES": 18000,
  "DESESCOLARIDAD_2019_2023": 200,
  "DESESCOLARIDAD_2024_2027": 5
 },
 {
  "DEPARTAMENTO": "SANTANDER",
  "MUNICIPIO": "ALBANIA",
  "LONGITUD": -73.8575,
  "LATITUD": 7.0667,
  "VEREDA_BARRIO": "BARRIO",
  "NOMBRE": "GUAYABAL",
  "GESTION": "COMBATIR",
  "CARENCIA": "CONSUMO DE DROGAS",
  "NOMBRE_GRUPO_ARMADO": "ZONA 3",
  "FACTOR": "FACTOR DE SEGURIDAD",
  "FACTOR_SIMPLIFICADO": "SEGURIDAD",
  "ACTOR_A_EJECUTAR": "GOBERNACION",
  "HABITANTES": 17000,
  "DESESCOLARIDAD_2019_2023": 200,
  "DESESCOLARIDAD_2024_2027": 5
 },
 {
  "DEPARTAMENTO": "SANTANDER",
  "MUNICIPIO": "ALBANIA",
  "LONGITUD": -73.8625,
  "LATITUD": 7.0687,
  "VEREDA_BARRIO": "BARRIO",
  "NOMBRE": "SANTARITA",
  "GESTION": "CREAR",
  "CARENCIA": "BIBLIOTECA",
  "NOMBRE_GRUPO_ARMADO": "ZONA 6",
  "FACTOR": "FACTOR SOCIAL Y CULTURAL",
  "FACTOR_SIMPLIFICADO": "SOCIAL Y CULTURAL",
  "ACTOR_A_EJECUTAR": "GOBERNACION",
  "HABITANTES": 19000,
  "DESESCOLARIDAD_2019_2023": 200,
  "DESESCOLARIDAD_2024_2027": 5
 },
 {
  "DEPARTAMENTO": "SANTANDER",
  "MUNICIPIO": "ALBANIA",
  "LONGITUD": -73.8637,
  "LATITUD": 7.0636,
  "VEREDA_BARRIO": "BARRIO",
  "NOMBRE": "UTAPA",
  "GESTION": "COMBATIR",
  "CARENCIA": "CONSUMO DE DROGAS",
  "NOMBRE_GRUPO_ARMADO": "ZONA 7",
  "FACTOR": "FACTOR DE SEGURIDAD",
  "FACTOR_SIMPLIFICADO": "SEGURIDAD",
  "ACTOR_A_EJECUTAR": "GOBERNACION",
  "HABITANTES": 15000,
  "DESESCOLARIDAD_2019_2023": 200,
  "DESESCOLARIDAD_2024_2027": 5
 },
 {
  "DEPARTAMENTO": "SANTANDER",
  "MUNICIPIO": "ALBANIA",
  "LONGITUD": -73.862,
  "LATITUD": 7.0704,
  "VEREDA_BARRIO": "VEREDA",
  "NOMBRE": "UVALES",
  "GESTION": "COMBATIR",
  "CARENCIA": "CONSUMO DE DROGAS",
  "NOMBRE_GRUPO_ARMADO": "ZONA 8",
  "FACTOR": "FACTOR DE SEGURIDAD",
  "FACTOR_SIMPLIFICADO": "SEGURIDAD",
  "ACTOR_A_EJECUTAR": "GOBERNACION",
  "HABITANTES": 17000,
  "DESESCOLARIDAD_2019_2023": 200,
  "DESESCOLARIDAD_2024_2027": 5
 },
 {
  "DEPARTAMENTO": "SANTANDER",
  "MUNICIPIO": "ALBANIA",
  "LONGITUD": -73.8642,
  "LATITUD": 7.0691,
  "VEREDA_BARRIO": "BARRIO",
  "NOMBRE": "ALTAMIRA",
  "GESTION": "CREAR",
  "CARENCIA": "CENTRO DE RECREACION",
  "NOMBRE_GRUPO_ARMADO": "ZONA 9",
  "FACTOR": "FACTOR SOCIAL Y CULTURAL",
  "FACTOR_SIMPLIFICADO": "SOCIAL Y CULTURAL",
  "ACTOR_A_EJECUTAR": "GOBERNACION",
  "HABITANTES": 16000,
  "DESESCOLARIDAD_2019_2023": 200,
  "DESESCOLARIDAD_2024_2027": 5
 },
 {
  "DEPARTAMENTO": "SANTANDER",
  "MUNICIPIO": "ALBANIA",
  "LONGITUD": -73.8632,
  "LATITUD": 7.0722,
  "VEREDA_BARRIO": "VEREDA",
  "NOMBRE": "AYACUCHO",
  "GESTION": "COMBATIR",
  "CARENCIA": "CONSUMO DE DROGAS",
  "NOMBRE_GRUPO_ARMADO": "ZONA 10",
  "FACTOR": "FACTOR DE SEGURIDAD",
  "FACTOR_SIMPLIFICADO": "SEGURIDAD",
  "ACTOR_A_EJECUTAR": "GOBERNACION",
  "HABITANTES": 14000,
  "DESESCOLARIDAD_2019_2023": 200,
  "DESESCOLARIDAD_2024_2027": 5
 },
 {
  "DEPARTAMENTO": "SANTANDER",
  "MUNICIPIO": "ALBANIA",
  "LONGITUD": -73.8591,
  "LATITUD": 7.0724,
  "VEREDA_BARRIO": "VEREDA",
  "NOMBRE": "CANOAS",
  "GESTION": "CREAR",
  "CARENCIA": "ESCUELA",
  "NOMBRE_GRUPO_ARMADO": "FARC",
  "FACTOR": "FACTOR EDUCACION",
  "FACTOR_SIMPLIFICADO": "EDUCACION",
  "ACTOR_A_EJECUTAR": "GOBERNACION",
  "HABITANTES": 18000,
  "DESESCOLARIDAD_2019_2023": 200,
  "DESESCOLARIDAD_2024_2027": 5
 },
 {
  "DEPARTAMENTO": "SANTANDER",
  "MUNICIPIO": "ALBANIA",
  "LONGITUD": -73.8596,
  "LATITUD": 7.0739,
  "VEREDA_BARRIO": "VEREDA",
  "NOMBRE": "CANUTILLO",
  "GESTION": "REPARAR",
  "CARENCIA": "ALUMBRADO PUBLICO",
  "NOMBRE_GRUPO_ARMADO": "CLAN DEL GOLFO",
  "FACTOR": "FACTOR DE INFRAESTRUCTURA",
  "FACTOR_SIMPLIFICADO": "INFRAESTRUCTURA",
  "ACTOR_A_EJECUTAR": "ALCALDIA",
  "HABITANTES": 18000,
  "DESESCOLARIDAD_2019_2023": 200,
  "DESESCOLARIDAD_2024_2027": 5
 },
 {
  "DEPARTAMENTO": "SANTANDER",
  "MUNICIPIO": "ALBANIA",
  "LONGITUD": -73.8604,
  "LATITUD": 7.071,
  "VEREDA_BARRIO": "VEREDA",
  "NOMBRE": "CARRETERO",
  "GESTION": "CREAR",
  "CARENCIA": "ESCUELA",
  "NOMBRE_GRUPO_ARMADO": "ZONA 10",
  "FACTOR": "FACTOR EDUCACION",
  "FACTOR_SIMPLIFICADO": "EDUCACION",
  "ACTOR_A_EJECUTAR": "GOBERNACION",
  "HABITANTES": 17000,
  "DESESCOLARIDAD_2019_2023": 200,
  "DESESCOLARIDAD_2024_2027": 5
 },
 {
  "DEPARTAMENTO": "SANTANDER",
  "MUNICIPIO": "ALBANIA",
  "LONGITUD": -73.8617,
  "LATITUD": 7.0703,
  "VEREDA_BARRIO": "VEREDA",
  "NOMBRE": "CHEBRE",
  "GESTION": "REPARAR",
  "CARENCIA": "CANCHA DEPORTIVA",
  "NOMBRE_GRUPO_ARMADO": "NOMBRE LA INTITUCIÓN EDUCATIVA",
  "FACTOR": "FACTOR DEPORTIVO",
  "FACTOR_SIMPLIFICADO": "DEPORTIVO",
  "ACTOR_A_EJECUTAR": "ALCALDIA",
  "HABITANTES": 16000,
  "DESESCOLARIDAD_2019_2023": 200,
  "DESESCOLARIDAD_2024_2027": 5
 },
 {
  "DEPARTAMENTO": "SANTANDER",
  "MUNICIPIO": "ALBANIA",
  "LONGITUD": -73.8648,
  "LATITUD": 7.0769,
  "VEREDA_BARRIO": "BARRIO",
  "NOMBRE": "CORCONDILLA",
  "GESTION": "COMBATIR",
  "CARENCIA": "MICROTRAFICO",
  "NOMBRE_GRUPO_ARMADO": "ZONA 12",
  "FACTOR": "FACTOR DE SEGURIDAD",
  "FACTOR_SIMPLIFICADO": "SEGURIDAD",
  "ACTOR_A_EJECUTAR": "GOBERNACION",
  "HABITANTES": 17000,
  "DESESCOLARIDAD_2019_2023": 200,
  "DESESCOLARIDAD_2024_2027": 5
 },
 {
  "DEPARTAMENTO": "SANTANDER",
  "MUNICIPIO": "ALBANIA",
  "LONGITUD": -73.862,
  "LATITUD": 7.0728,
  "VEREDA_BARRIO": "VEREDA",
  "NOMBRE": "ELHATILLO",
  "GESTION": "CREAR",
  "CARENCIA": "PARQUE INFANTIL",
  "NOMBRE_GRUPO_ARMADO": "ZONA 13",
  "FACTOR": "FACTOR SOCIAL Y CULTURAL",
  "FACTOR_SIMPLIFICADO": "SOCIAL Y CULTURAL",
  "ACTOR_A_EJECUTAR": "GOBERNACION",
  "HABITANTES": 16000,
  "DESESCOLARIDAD_2019_2023": 200,
  "DESESCOLARIDAD_2024_2027": 5
 },
 {
  "DEPARTAMENTO": "SANTANDER",
  "MUNICIPIO": "ALBANIA",
  "LONGITUD": -73.8583,
  "LATITUD": 7.0718,
  "VEREDA_BARRIO": "VEREDA",
  "NOMBRE": "ELTABLON",
  "GESTION": "REPARAR",
  "CARENCIA": "ALUMBRADO PUBLICO",
  "NOMBRE_GRUPO_ARMADO": "ZONA 14",
  "FACTOR": "FACTOR DE INFRAESTRUCTURA",
  "FACTOR_SIMPLIFICADO": "INFRAESTRUCTURA",
  "ACTOR_A_EJECUTAR": "ALCALDIA",
  "HABITANTES": 19000,
  "DESESCOLARIDAD_2019_2023": 200,
  "DESESCOLARIDAD_2024_2027": 5
 },
 {
  "DEPARTAMENTO": "SANTANDER",
  "MUNICIPIO": "ALBANIA",
  "LONGITUD": -73.8582,
  "LATITUD": 7.0661,
  "VEREDA_BARRIO": "VEREDA",
  "NOMBRE": "GUACOS",
  "GESTION": "MEJORAR",
  "CARENCIA": "CENTRO DE SALUD",
  "NOMBRE_GRUPO_ARMADO": "CLAN DEL GOLFO",
  "FACTOR": "FACTOR DE SALUD",
  "FACTOR_SIMPLIFICADO": "SALUD",
  "ACTOR_A_EJECUTAR": "ALCALDIA",
  "HABITANTES": 19000,
  "DESESCOLARIDAD_2019_2023": 200,
  "DESESCOLARIDAD_2024_2027": 5
 },
 {
  "DEPARTAMENTO": "SANTANDER",
  "MUNICIPIO": "ALBANIA",
  "LONGITUD": -73.863,
  "LATITUD": 7.0708,
  "VEREDA_BARRIO": "BARRIO",
  "NOMBRE": "GUAYABAL",
  "GESTION": "REPARAR",
  "CARENCIA": "ALUMBRADO PUBLICO",
  "NOMBRE_GRUPO_ARMADO": "CLAN DEL GOLFO",
  "FACTOR": "FACTOR DE INFRAESTRUCTURA",
  "FACTOR_SIMPLIFICADO": "INFRAESTRUCTURA",
  "ACTOR_A_EJECUTAR": "ALCALDIA",
  "HABITANTES": 17000,
  "DESESCOLARIDAD_2019_2023": 200,
  "DESESCOLARIDAD_2024_2027": 5
 },
 {
  "DEPARTAMENTO": "SANTANDER",
  "MUNICIPIO": "ALBANIA",
  "LONGITUD": -73.849,
  "LATITUD": 7.0703,
  "VEREDA_BARRIO": "BARRIO",
  "NOMBRE": "HONDA",
  "GESTION": "CREAR",
  "CARENCIA": "PARQUE INFANTIL",
  "NOMBRE_GRUPO_ARMADO": "CLAN DEL GOLFO",
  "FACTOR": "FACTOR SOCIAL Y CULTURAL",
  "FACTOR_SIMPLIFICADO": "SOCIAL Y CULTURAL",
  "ACTOR_A_EJECUTAR": "GOBERNACION",
  "HABITANTES": 16000,
  "DESESCOLARIDAD_2019_2023": 200,
  "DESESCOLARIDAD_2024_2027": 5
 },
 {
  "DEPARTAMENTO": "SANTANDER",
  "MUNICIPIO": "ALBANIA",
  "LONGITUD": -73.857,
  "LATITUD": 7.067,
  "VEREDA_BARRIO": "VEREDA",
  "NOMBRE": "LAMESA",
  "GESTION": "REPARAR",
  "CARENCIA": "CENTRO DE SALUD",
  "NOMBRE_GRUPO_ARMADO": "CLAN DEL GOLFO",
  "FACTOR": "FACTOR DE SALUD",
  "FACTOR_SIMPLIFICADO": "SALUD",
  "ACTOR_A_EJECUTAR": "ALCALDIA",
  "HABITANTES": 17000,
  "DESESCOLARIDAD_2019_2023": 200,
  "DESESCOLARIDAD_2024_2027": 5
 },
 {
  "DEPARTAMENTO": "SANTANDER",
  "MUNICIPIO": "ALBANIA",
  "LONGITUD": -73.859,
  "LATITUD": 7.0702,
  "VEREDA_BARRIO": "VEREDA",
  "NOMBRE": "MEDIOS",
  "GESTION": "CREAR",
  "CARENCIA": "HOSPITAL",
  "NOMBRE_GRUPO_ARMADO": "CLAN DEL GOLFO",
  "FACTOR": "FACTOR DE SALUD",
  "FACTOR_SIMPLIFICADO": "SALUD",
  "ACTOR_A_EJECUTAR": "GOBERNACION",
  "HABITANTES": 17000,
  "DESESCOLARIDAD_2019_2023": 200,
  "DESESCOLARIDAD_2024_2027": 5
 },
 {
  "DEPARTAMENTO": "SANTANDER",
  "MUNICIPIO": "ALBANIA",
  "LONGITUD": -73.8616,
  "LATITUD": 7.0698,
  "VEREDA_BARRIO": "VEREDA",
  "NOMBRE": "MESAGRANDE",
  "GESTION": "COMBATIR",
  "CARENCIA": "TALA DE ARBOLES",
  "NOMBRE_GRUPO_ARMADO": "CLAN DEL GOLFO",
  "FACTOR": "FACTOR AMBIENTAL",
  "FACTOR_SIMPLIFICADO": "AMBIENTAL",
  "ACTOR_A_EJECUTAR": "GOBERNACION",
  "HABITANTES": 17000,
  "DESESCOLARIDAD_2019_2023": 200,
  "DESESCOLARIDAD_2024_2027": 5
 },
 {
  "DEPARTAMENTO": "SANTANDER",
  "MUNICIPIO": "ALBANIA",
  "LONGITUD": -73.8609,
  "LATITUD": 7.072,
  "VEREDA_BARRIO": "VEREDA",
  "NOMBRE": "MOCHILA",
  "GESTION": "MEJORAR",
  "CARENCIA": "PARQUE INFANTIL",
  "NOMBRE_GRUPO_ARMADO": "CLAN DEL GOLFO",
  "FACTOR": "FACTOR SOCIAL Y CULTURAL",
  "FACTOR_SIMPLIFICADO": "SOCIAL Y CULTURAL",
  "ACTOR_A_EJECUTAR": "ALCALDIA",
  "HABITANTES": 14000,
  "DESESCOLARIDAD_2019_2023": 200,
  "DESESCOLARIDAD_2024_2027": 5
 },
 {
  "DEPARTAMENTO": "SANTANDER",
  "MUNICIPIO": "ALBANIA",
  "LONGITUD": -73.8617,
  "LATITUD": 7.0678,
  "VEREDA_BARRIO": "VEREDA",
  "NOMBRE": "PANDEAZUCAR",
  "GESTION": "COMBATIR",
  "CARENCIA": "MICROTRAFICO",
  "NOMBRE_GRUPO_ARMADO": "CLAN DEL GOLFO",
  "FACTOR": "FACTOR DE SEGURIDAD",
  "FACTOR_SIMPLIFICADO": "SEGURIDAD",
  "ACTOR_A_EJECUTAR": "GOBERNACION",
  "HABITANTES": 16000,
  "DESESCOLARIDAD_2019_2023": 200,
  "DESESCOLARIDAD_2024_2027": 5
 },
 {
  "DEPARTAMENTO": "SANTANDER",
  "MUNICIPIO": "ALBANIA",
  "LONGITUD": -73.8605,
  "LATITUD": 7.0699,
  "VEREDA_BARRIO": "BARRIO",
  "NOMBRE": "PANTANOS",
  "GESTION": "CREAR",
  "CARENCIA": "BIBLIOTECA",
  "NOMBRE_GRUPO_ARMADO": "ELN",
  "FACTOR": "FACTOR SOCIAL Y CULTURAL",
  "FACTOR_SIMPLIFICADO": "SOCIAL Y CULTURAL",
  "ACTOR_A_EJECUTAR": "GOBERNACION",
  "HABITANTES": 19000,
  "DESESCOLARIDAD_2019_2023": 200,
  "DESESCOLARIDAD_2024_2027": 5
 },
 {
  "DEPARTAMENTO": "SANTANDER",
  "MUNICIPIO": "ALBANIA",
  "LONGITUD": -73.8641,
  "LATITUD": 7.0697,
  "VEREDA_BARRIO": "VEREDA",
  "NOMBRE": "PLAYAS",
  "GESTION": "MEJORAR",
  "CARENCIA": "PARQUE INFANTIL",
  "NOMBRE_GRUPO_ARMADO": "ELN",
  "FACTOR": "FACTOR SOCIAL Y CULTURAL",
  "FACTOR_SIMPLIFICADO": "SOCIAL Y CULTURAL",
  "ACTOR_A_EJECUTAR": "ALCALDIA",
  "HABITANTES": 18000,
  "DESESCOLARIDAD_2019_2023": 200,
  "DESESCOLARIDAD_2024_2027": 5
 },
 {
  "DEPARTAMENTO": "SANTANDER",
  "MUNICIPIO": "ALBANIA",
  "LONGITUD": -73.8623,
  "LATITUD": 7.0744,
  "VEREDA_BARRIO": "VEREDA",
  "NOMBRE": "ELHATILLO",
  "GESTION": "REPARAR",
  "CARENCIA": "ALUMBRADO PUBLICO",
  "NOMBRE_GRUPO_ARMADO": "NOMBRE DEL HOSPITAL",
  "FACTOR": "FACTOR DE INFRAESTRUCTURA",
  "FACTOR_SIMPLIFICADO": "INFRAESTRUCTURA",
  "ACTOR_A_EJECUTAR": "ALCALDIA",
  "HABITANTES": 15000,
  "DESESCOLARIDAD_2019_2023": 200,
  "DESESCOLARIDAD_2024_2027": 5
 },
 {
  "DEPARTAMENTO": "SANTANDER",
  "MUNICIPIO": "ALBANIA",
  "LONGITUD": -73.8598,
  "LATITUD": 7.0694,
  "VEREDA_BARRIO": "BARRIO",
  "NOMBRE": "ELTABLON",
  "GESTION": "COMBATIR",
  "CARENCIA": "MICROTRAFICO",
  "NOMBRE_GRUPO_ARMADO": "NOMBRE LA INTITUCIÓN EDUCATIVA",
  "FACTOR": "FACTOR DE SEGURIDAD",
  "FACTOR_SIMPLIFICADO": "SEGURIDAD",
  "ACTOR_A_EJECUTAR": "GOBERNACION",
  "HABITANTES": 19000,
  "DESESCOLARIDAD_2019_2023": 200,
  "DESESCOLARIDAD_2024_2027": 5
 },
 {
  "DEPARTAMENTO": "SANTANDER",
  "MUNICIPIO": "ALBANIA",
  "LONGITUD": -73.8559,
  "LATITUD": 7.072,
  "VEREDA_BARRIO": "BARRIO",
  "NOMBRE": "GUACOS",
  "GESTION": "COMBATIR",
  "CARENCIA": "MICROTRAFICO",
  "NOMBRE_GRUPO_ARMADO": "NOMBRE DEL HOSPITAL",
  "FACTOR": "FACTOR DE SEGURIDAD",
  "FACTOR_SIMPLIFICADO": "SEGURIDAD",
  "ACTOR_A_EJECUTAR": "GOBERNACION",
  "HABITANTES": 17000,
  "DESESCOLARIDAD_2019_2023": 200,
  "DESESCOLARIDAD_2024_2027": 5
 },
 {
  "DEPARTAMENTO": "SANTANDER",
  "MUNICIPIO": "ALBANIA",
  "LONGITUD": -73.8603,
  "LATITUD": 7.069,
  "VEREDA_BARRIO": "VEREDA",
  "NOMBRE": "GUAYABAL",
  "GESTION": "CREAR",
  "CARENCIA": "BIBLIOTECA",
  "NOMBRE_GRUPO_ARMADO": "NOMBRE LA INTITUCIÓN EDUCATIVA",
  "FACTOR": "FACTOR SOCIAL Y CULTURAL",
  "FACTOR_SIMPLIFICADO": "SOCIAL Y CULTURAL",
  "ACTOR_A_EJECUTAR": "GOBERNACION",
  "HABITANTES": 17000,
  "DESESCOLARIDAD_2019_2023": 200,
  "DESESCOLARIDAD_2024_2027": 5
 },
 {
  "DEPARTAMENTO": "SANTANDER",
  "MUNICIPIO": "ALBANIA",
  "LONGITUD": -73.8584,
  "LATITUD": 7.0711,
  "VEREDA_BARRIO": "VEREDA",
  "NOMBRE": "HONDA",
  "GESTION": "MEJORAR",
  "CARENCIA": "PLAZA DE MERCADO",
  "NOMBRE_GRUPO_ARMADO": "ZONA 15",
  "FACTOR": "FACTOR SOCIAL Y CULTURAL",
  "FACTOR_SIMPLIFICADO": "SOCIAL Y CULTURAL",
  "ACTOR_A_EJECUTAR": "ALCALDIA",
  "HABITANTES": 19000,
  "DESESCOLARIDAD_2019_2023": 200,
  "DESESCOLARIDAD_2024_2027": 5
 },
 {
  "DEPARTAMENTO": "SANTANDER",
  "MUNICIPIO": "ALBANIA",
  "LONGITUD": -73.8592,
  "LATITUD": 7.072,
  "VEREDA_BARRIO": "BARRIO",
  "NOMBRE": "LAMESA",
  "GESTION": "MEJORAR",
  "CARENCIA": "PARQUE INFANTIL",
  "NOMBRE_GRUPO_ARMADO": "16",
  "FACTOR": "FACTOR SOCIAL Y CULTURAL",
  "FACTOR_SIMPLIFICADO": "SOCIAL Y CULTURAL",
  "ACTOR_A_EJECUTAR": "ALCALDIA",
  "HABITANTES": 18000,
  "DESESCOLARIDAD_2019_2023": 200,
  "DESESCOLARIDAD_2024_2027": 5
 },
 {
  "DEPARTAMENTO": "SANTANDER",
  "MUNICIPIO": "ALBANIA",
  "LONGITUD": -73.8616,
  "LATITUD": 7.07,
  "VEREDA_BARRIO": "VEREDA",
  "NOMBRE": "MEDIOS",
  "GESTION": "MEJORAR",
  "CARENCIA": "CANCHA DEPORTIVA",
  "NOMBRE_GRUPO_ARMADO": "NOMBRE DEL HOSPITAL",
  "FACTOR": "FACTOR DEPORTIVO",
  "FACTOR_SIMPLIFICADO": "DEPORTIVO",
  "ACTOR_A_EJECUTAR": "ALCALDIA",
  "HABITANTES": 18000,
  "DESESCOLARIDAD_2019_2023": 200,
  "DESESCOLARIDAD_2024_2027": 5
 },
 {
  "DEPARTAMENTO": "SANTANDER",
  "MUNICIPIO": "ALBANIA",
  "LONGITUD": -73.8642,
  "LATITUD": 7.0702,
  "VEREDA_BARRIO": "VEREDA",
  "NOMBRE": "MESAGRANDE",
  "GESTION": "REPARAR",
  "CARENCIA": "ALUMBRADO PUBLICO",
  "NOMBRE_GRUPO_ARMADO": "NOMBRE LA INTITUCIÓN EDUCATIVA",
  "FACTOR": "FACTOR DE INFRAESTRUCTURA",
  "FACTOR_SIMPLIFICADO": "INFRAESTRUCTURA",
  "ACTOR_A_EJECUTAR": "ALCALDIA",
  "HABITANTES": 17000,
  "DESESCOLARIDAD_2019_2023": 200,
  "DESESCOLARIDAD_2024_2027": 5
 },
 {
  "DEPARTAMENTO": "SANTANDER",
  "MUNICIPIO": "ALBANIA",
  "LONGITUD": -73.8621,
  "LATITUD": 7.0647,
  "VEREDA_BARRIO": "VEREDA",
  "NOMBRE": "MOCHILA",
  "GESTION": "MEJORAR",
  "CARENCIA": "PUENTE",
  "NOMBRE_GRUPO_ARMADO": "ZONA 18",
  "FACTOR": "FACTOR DE INFRAESTRUCTURA",
  "FACTOR_SIMPLIFICADO": "INFRAESTRUCTURA",
  "ACTOR_A_EJECUTAR": "ALCALDIA",
  "HABITANTES": 15000,
  "DESESCOLARIDAD_2019_2023": 200,
  "DESESCOLARIDAD_2024_2027": 5
 },
 {
  "DEPARTAMENTO": "SANTANDER",
  "MUNICIPIO": "ALBANIA",
  "LONGITUD": -73.8609,
  "LATITUD": 7.07,
  "VEREDA_BARRIO": "BARRIO",
  "NOMBRE": "PANDEAZUCAR",
  "GESTION": "REPARAR",
  "CARENCIA": "PARQUE INFANTIL",
  "NOMBRE_GRUPO_ARMADO": "ZONA 20",
  "FACTOR": "FACTOR SOCIAL Y CULTURAL",
  "FACTOR_SIMPLIFICADO": "SOCIAL Y CULTURAL",
  "ACTOR_A_EJECUTAR": "ALCALDIA",
  "HABITANTES": 19000,
  "DESESCOLARIDAD_2019_2023": 200,
  "DESESCOLARIDAD_2024_2027": 5
 },
 {
  "DEPARTAMENTO": "SANTANDER",
  "MUNICIPIO": "ALBANIA",
  "LONGITUD": -73.8631,
  "LATITUD": 7.0702,
  "VEREDA_BARRIO": "VEREDA",
  "NOMBRE": "PANTANOS",
  "GESTION": "REPARAR",
  "CARENCIA": "ALUMBRADO PUBLICO",
  "NOMBRE_GRUPO_ARMADO": "ZONA 19",
  "FACTOR": "FACTOR DE INFRAESTRUCTURA",
  "FACTOR_SIMPLIFICADO": "INFRAESTRUCTURA",
  "ACTOR_A_EJECUTAR": "ALCALDIA",
  "HABITANTES": 16000,
  "DESESCOLARIDAD_2019_2023": 200,
  "DESESCOLARIDAD_2024_2027": 5
 },
 {
  "DEPARTAMENTO": "SANTANDER",
  "MUNICIPIO": "ALBANIA",
  "LONGITUD": -73.8595,
  "LATITUD": 7.0719,
  "VEREDA_BARRIO": "BARRIO",
  "NOMBRE": "PLAYAS",
  "GESTION": "COMBATIR",
  "CARENCIA": "MICROTRAFICO",
  "NOMBRE_GRUPO_ARMADO": "ZONA 21",
  "FACTOR": "FACTOR DE SEGURIDAD",
  "FACTOR_SIMPLIFICADO": "SEGURIDAD",
  "ACTOR_A_EJECUTAR": "GOBERNACION",
  "HABITANTES": 16000,
  "DESESCOLARIDAD_2019_2023": 200,
  "DESESCOLARIDAD_2024_2027": 5
 },
 {
  "DEPARTAMENTO": "SANTANDER",
  "MUNICIPIO": "ALBANIA",
  "LONGITUD": -73.8583,
  "LATITUD": 7.0578,
  "VEREDA_BARRIO": "BARRIO",
  "NOMBRE": "POTREROS",
  "GESTION": "CREAR",
  "CARENCIA": "PLAZOLETA",
  "NOMBRE_GRUPO_ARMADO": "ZONA 22",
  "FACTOR": "FACTOR SOCIAL Y CULTURAL",
  "FACTOR_SIMPLIFICADO": "SOCIAL Y CULTURAL",
  "ACTOR_A_EJECUTAR": "GOBERNACION",
  "HABITANTES": 12000,
  "DESESCOLARIDAD_2019_2023": 200,
  "DESESCOLARIDAD_2024_2027": 5
 },
 {
  "DEPARTAMENTO": "SANTANDER",
  "MUNICIPIO": "ALBANIA",
  "LONGITUD": -73.8608,
  "LATITUD": 7.0715,
  "VEREDA_BARRIO": "VEREDA",
  "NOMBRE": "POVEDA",
  "GESTION": "CREAR",
  "CARENCIA": "ESCUELA",
  "NOMBRE_GRUPO_ARMADO": "ZONA 3",
  "FACTOR": "FACTOR EDUCACION",
  "FACTOR_SIMPLIFICADO": "EDUCACION",
  "ACTOR_A_EJECUTAR": "GOBERNACION",
  "HABITANTES": 19000,
  "DESESCOLARIDAD_2019_2023": 200,
  "DESESCOLARIDAD_2024_2027": 5
 },
 {
  "DEPARTAMENTO": "SANTANDER",
  "MUNICIPIO": "ALBANIA",
  "LONGITUD": -73.8642,
  "LATITUD": 7.0552,
  "VEREDA_BARRIO": "VEREDA",
  "NOMBRE": "PUEBLOVIEJO",
  "GESTION": "MEJORAR",
  "CARENCIA": "ALUMBRADO PUBLICO",
  "NOMBRE_GRUPO_ARMADO": "ZONA 4",
  "FACTOR": "FACTOR DE INFRAESTRUCTURA",
  "FACTOR_SIMPLIFICADO": "INFRAESTRUCTURA",
  "ACTOR_A_EJECUTAR": "ALCALDIA",
  "HABITANTES": 16000,
  "DESESCOLARIDAD_2019_2023": 200,
  "DESESCOLARIDAD_2024_2027": 5
 },
 {
  "DEPARTAMENTO": "SANTANDER",
  "MUNICIPIO": "ALBANIA",
  "LONGITUD": -73.8512,
  "LATITUD": 7.0568,
  "VEREDA_BARRIO": "VEREDA",
  "NOMBRE": "SABANETA",
  "GESTION": "REPARAR",
  "CARENCIA": "COLEGIO",
  "NOMBRE_GRUPO_ARMADO": "ZONA 5",
  "FACTOR": "FACTOR DE EDUCACION",
  "FACTOR_SIMPLIFICADO": "EDUCACION",
  "ACTOR_A_EJECUTAR": "GOBIERNO",
  "HABITANTES": 14000,
  "DESESCOLARIDAD_2019_2023": 200,
  "DESESCOLARIDAD_2024_2027": 5
 },
 {
  "DEPARTAMENTO": "SANTANDER",
  "MUNICIPIO": "ALBANIA",
  "LONGITUD": -73.8577,
  "LATITUD": 7.0593,
  "VEREDA_BARRIO": "VEREDA",
  "NOMBRE": "SALITRE",
  "GESTION": "REPARAR",
  "CARENCIA": "CANCHA DEPORTIVA",
  "NOMBRE_GRUPO_ARMADO": "ZONA 6",
  "FACTOR": "FACTOR DE INFRAESTRUCTURA",
  "FACTOR_SIMPLIFICADO": "INFRAESTRUCTURA",
  "ACTOR_A_EJECUTAR": "ALCALDIA",
  "HABITANTES": 11000,
  "DESESCOLARIDAD_2019_2023": 200,
  "DESESCOLARIDAD_2024_2027": 5
 },
 {
  "DEPARTAMENTO": "SANTANDER",
  "MUNICIPIO": "ALBANIA",
  "LONGITUD": -73.8547,
  "LATITUD": 7.0698,
  "VEREDA_BARRIO": "BARRIO",
  "NOMBRE": "SANPABLO",
  "GESTION": "COMBATIR",
  "CARENCIA": "VANDALISMO",
  "NOMBRE_GRUPO_ARMADO": "ZONA 7",
  "FACTOR": "FACTOR DE SEGURIDAD",
  "FACTOR_SIMPLIFICADO": "SEGURIDAD",
  "ACTOR_A_EJECUTAR": "GOBERNACION",
  "HABITANTES": 14000,
  "DESESCOLARIDAD_2019_2023": 200,
  "DESESCOLARIDAD_2024_2027": 5
 },
 {
  "DEPARTAMENTO": "SANTANDER",
  "MUNICIPIO": "ALBANIA",
  "LONGITUD": -73.8571,
  "LATITUD": 7.0716,
  "VEREDA_BARRIO": "VEREDA",
  "NOMBRE": "SANTARITA",
  "GESTION": "REPARAR",
  "CARENCIA": "ILUMINACION PUBLICA",
  "NOMBRE_GRUPO_ARMADO": "ZONA 8",
  "FACTOR": "FACTOR DE INFRAESTRUCTURA",
  "FACTOR_SIMPLIFICADO": "INFRAESTRUCTURA",
  "ACTOR_A_EJECUTAR": "ALCALDIA",
  "HABITANTES": 15000,
  "DESESCOLARIDAD_2019_2023": 200,
  "DESESCOLARIDAD_2024_2027": 5
 },
 {
  "DEPARTAMENTO": "SANTANDER",
  "MUNICIPIO": "ALBANIA",
  "LONGITUD": -73.8639,
  "LATITUD": 7.0719,
  "VEREDA_BARRIO": "BARRIO",
  "NOMBRE": "UTAPA",
  "GESTION": "REPARAR",
  "CARENCIA": "ALUMBRADO PUBLICO",
  "NOMBRE_GRUPO_ARMADO": "ZONA 9",
  "FACTOR": "FACTOR DE INFRAESTRUCTURA",
  "FACTOR_SIMPLIFICADO": "INFRAESTRUCTURA",
  "ACTOR_A_EJECUTAR": "ALCALDIA",
  "HABITANTES": 16000,
  "DESESCOLARIDAD_2019_2023": 200,
  "DESESCOLARIDAD_2024_2027": 5
 },
 {
  "DEPARTAMENTO": "SANTANDER",
  "MUNICIPIO": "ALBANIA",
  "LONGITUD": -73.8536,
  "LATITUD": 7.0767,
  "VEREDA_BARRIO": "BARRIO",
  "NOMBRE": "UVALES",
  "GESTION": "COMBATIR",
  "CARENCIA": "CONTAMINACION AMBIENTAL",
  "NOMBRE_GRUPO_ARMADO": "ZONA 10",
  "FACTOR": "FACTOR AMBIENTAL",
  "FACTOR_SIMPLIFICADO": "AMBIENTAL",
  "ACTOR_A_EJECUTAR": "GOBERNACION",
  "HABITANTES": 17000,
  "DESESCOLARIDAD_2019_2023": 200,
  "DESESCOLARIDAD_2024_2027": 5
 },
 {
  "DEPARTAMENTO": "SANTANDER",
  "MUNICIPIO": "ALBANIA",
  "LONGITUD": -73.8612,
  "LATITUD": 7.0608,
  "VEREDA_BARRIO": "BARRIO",
  "NOMBRE": "ALTAMIRA",
  "GESTION": "CREAR",
  "CARENCIA": "PARQUE",
  "NOMBRE_GRUPO_ARMADO": "ZONA 11",
  "FACTOR": "FACTOR SOCIAL Y CULTURAL",
  "FACTOR_SIMPLIFICADO": "SOCIAL Y CULTURAL",
  "ACTOR_A_EJECUTAR": "GOBERNACION",
  "HABITANTES": 16000,
  "DESESCOLARIDAD_2019_2023": 200,
  "DESESCOLARIDAD_2024_2027": 5
 },
 {
  "DEPARTAMENTO": "SANTANDER",
  "MUNICIPIO": "ALBANIA",
  "LONGITUD": -73.8618,
  "LATITUD": 7.0682,
  "VEREDA_BARRIO": "BARRIO",
  "NOMBRE": "AYACUCHO",
  "GESTION": "REPARAR",
  "CARENCIA": "SALON COMUNAL",
  "NOMBRE_GRUPO_ARMADO": "ZONA 12",
  "FACTOR": "FACTOR SOCIAL Y CULTURAL",
  "FACTOR_SIMPLIFICADO": "SOCIAL Y CULTURAL",
  "ACTOR_A_EJECUTAR": "ALCALDIA",
  "HABITANTES": 17000,
  "DESESCOLARIDAD_2019_2023": 200,
  "DESESCOLARIDAD_2024_2027": 5
 },
 {
  "DEPARTAMENTO": "SANTANDER",
  "MUNICIPIO": "ALBANIA",
  "LONGITUD": -73.8624,
  "LATITUD": 7.0691,
  "VEREDA_BARRIO": "VEREDA",
  "NOMBRE": "CANOAS",
  "GESTION": "CREAR",
  "CARENCIA": "HOSPITAL",
  "NOMBRE_GRUPO_ARMADO": "ZONA 13",
  "FACTOR": "FACTOR DE SALUD",
  "FACTOR_SIMPLIFICADO": "SALUD",
  "ACTOR_A_EJECUTAR": "GOBERNACION",
  "HABITANTES": 16000,
  "DESESCOLARIDAD_2019_2023": 200,
  "DESESCOLARIDAD_2024_2027": 5
 },
 {
  "DEPARTAMENTO": "SANTANDER",
  "MUNICIPIO": "ALBANIA",
  "LONGITUD": -73.8586,
  "LATITUD": 7.0721,
  "VEREDA_BARRIO": "VEREDA",
  "NOMBRE": "CANUTILLO",
  "GESTION": "COMBATIR",
  "CARENCIA": "TALA DE ARBOLES",
  "NOMBRE_GRUPO_ARMADO": "ZONA 14",
  "FACTOR": "FACTOR AMBIENTAL",
  "FACTOR_SIMPLIFICADO": "AMBIENTAL",
  "ACTOR_A_EJECUTAR": "GOBERNACION",
  "HABITANTES": 18000,
  "DESESCOLARIDAD_2019_2023": 200,
  "DESESCOLARIDAD_2024_2027": 5
 },
 {
  "DEPARTAMENTO": "SANTANDER",
  "MUNICIPIO": "ALBANIA",
  "LONGITUD": -73.855,
  "LATITUD": 7.0642,
  "VEREDA_BARRIO": "VEREDA",
  "NOMBRE": "CARRETERO",
  "GESTION": "REPARAR",
  "CARENCIA": "SALON COMUNAL",
  "NOMBRE_GRUPO_ARMADO": "ZONA 15",
  "FACTOR": "FACTOR SOCIAL Y CULTURAL",
  "FACTOR_SIMPLIFICADO": "SOCIAL Y CULTURAL",
  "ACTOR_A_EJECUTAR": "ALCALDIA",
  "HABITANTES": 17000,
  "DESESCOLARIDAD_2019_2023": 200,
  "DESESCOLARIDAD_2024_2027": 5
 },
 {
  "DEPARTAMENTO": "SANTANDER",
  "MUNICIPIO": "ALBANIA",
  "LONGITUD": -73.8612,
  "LATITUD": 7.0685,
  "VEREDA_BARRIO": "BARRIO",
  "NOMBRE": "PANTANOS",
  "GESTION": "MEJORAR",
  "CARENCIA": "PLAZA DE MERCADO",
  "NOMBRE_GRUPO_ARMADO": "ZONA 16",
  "FACTOR": "FACTOR SOCIAL Y CULTURAL",
  "FACTOR_SIMPLIFICADO": "SOCIAL Y CULTURAL",
  "ACTOR_A_EJECUTAR": "ALCALDIA",
  "HABITANTES": 20000,
  "DESESCOLARIDAD_2019_2023": 200,
  "DESESCOLARIDAD_2024_2027": 5
 },
 {
  "DEPARTAMENTO": "SANTANDER",
  "MUNICIPIO": "ALBANIA",
  "LONGITUD": -73.8599,
  "LATITUD": 7.0719,
  "VEREDA_BARRIO": "BARRIO",
  "NOMBRE": "PLAYAS",
  "GESTION": "CREAR",
  "CARENCIA": "PLAZA DE MERCADO",
  "NOMBRE_GRUPO_ARMADO": "ZONA 17",
  "FACTOR": "FACTOR SOCIAL Y CULTURAL",
  "FACTOR_SIMPLIFICADO": "SOCIAL Y CULTURAL",
  "ACTOR_A_EJECUTAR": "GOBERNACION",
  "HABITANTES": 19000,
  "DESESCOLARIDAD_2019_2023": 200,
  "DESESCOLARIDAD_2024_2027": 5
 },
 {
  "DEPARTAMENTO": "SANTANDER",
  "MUNICIPIO": "ALBANIA",
  "LONGITUD": -73.8564,
  "LATITUD": 7.0781,
  "VEREDA_BARRIO": "VEREDA",
  "NOMBRE": "POTREROS",
  "GESTION": "REPARAR",
  "CARENCIA": "ALCANTARILLADO",
  "NOMBRE_GRUPO_ARMADO": "ZONA 18",
  "FACTOR": "FACTOR DE INFRAESTRUCTURA",
  "FACTOR_SIMPLIFICADO": "INFRAESTRUCTURA",
  "ACTOR_A_EJECUTAR": "ALCALDIA",
  "HABITANTES": 16000,
  "DESESCOLARIDAD_2019_2023": 200,
  "DESESCOLARIDAD_2024_2027": 5
 },
 {
  "DEPARTAMENTO": "SANTANDER",
  "MUNICIPIO": "ALBANIA",
  "LONGITUD": -73.8543,
  "LATITUD": 7.0643,
  "VEREDA_BARRIO": "BARRIO",
  "NOMBRE": "POVEDA",
  "GESTION": "COMBATIR",
  "CARENCIA": "VANDALISMO",
  "NOMBRE_GRUPO_ARMADO": "ELN",
  "FACTOR": "FACTOR DE SEGURIDAD",
  "FACTOR_SIMPLIFICADO": "SEGURIDAD",
  "ACTOR_A_EJECUTAR": "GOBERNACION",
  "HABITANTES": 16000,
  "DESESCOLARIDAD_2019_2023": 200,
  "DESESCOLARIDAD_2024_2027": 5
 },
 {
  "DEPARTAMENTO": "SANTANDER",
  "MUNICIPIO": "ALBANIA",
  "LONGITUD": -73.8613,
  "LATITUD": 7.07259999999999,
  "VEREDA_BARRIO": "VEREDA",
  "NOMBRE": "PUEBLOVIEJO",
  "GESTION": "COMBATIR",
  "CARENCIA": "CONSUMO DE DROGAS",
  "NOMBRE_GRUPO_ARMADO": "ELN",
  "FACTOR": "FACTOR DE SEGURIDAD",
  "FACTOR_SIMPLIFICADO": "SEGURIDAD",
  "ACTOR_A_EJECUTAR": "GOBERNACION",
  "HABITANTES": 16000,
  "DESESCOLARIDAD_2019_2023": 200,
  "DESESCOLARIDAD_2024_2027": 5
 },
 {
  "DEPARTAMENTO": "SANTANDER",
  "MUNICIPIO": "ALBANIA",
  "LONGITUD": -73.861,
  "LATITUD": 7.0706,
  "VEREDA_BARRIO": "VEREDA",
  "NOMBRE": "SABANETA",
  "GESTION": "COMBATIR",
  "CARENCIA": "MICROTRAFICO",
  "NOMBRE_GRUPO_ARMADO": "ELN",
  "FACTOR": "FACTOR DE SEGURIDAD",
  "FACTOR_SIMPLIFICADO": "SEGURIDAD",
  "ACTOR_A_EJECUTAR": "GOBERNACION",
  "HABITANTES": 17000,
  "DESESCOLARIDAD_2019_2023": 200,
  "DESESCOLARIDAD_2024_2027": 5
 },
 {
  "DEPARTAMENTO": "SANTANDER",
  "MUNICIPIO": "ALBANIA",
  "LONGITUD": -73.8632,
  "LATITUD": 7.06,
  "VEREDA_BARRIO": "BARRIO",
  "NOMBRE": "SALITRE",
  "GESTION": "COMBATIR",
  "CARENCIA": "CONSUMO DE DROGAS",
  "NOMBRE_GRUPO_ARMADO": "ELN",
  "FACTOR": "FACTOR DE SEGURIDAD",
  "FACTOR_SIMPLIFICADO": "SEGURIDAD",
  "ACTOR_A_EJECUTAR": "GOBERNACION",
  "HABITANTES": 15000,
  "DESESCOLARIDAD_2019_2023": 200,
  "DESESCOLARIDAD_2024_2027": 5
 },
 {
  "DEPARTAMENTO": "SANTANDER",
  "MUNICIPIO": "ALBANIA",
  "LONGITUD": -73.8633,
  "LATITUD": 7.0701,
  "VEREDA_BARRIO": "VEREDA",
  "NOMBRE": "SANPABLO",
  "GESTION": "MEJORAR",
  "CARENCIA": "CENTRO DE SALUD",
  "NOMBRE_GRUPO_ARMADO": "NOMBRE LA INTITUCIÓN EDUCATIVA",
  "FACTOR": "FACTOR DE SALUD",
  "FACTOR_SIMPLIFICADO": "SALUD",
  "ACTOR_A_EJECUTAR": "ALCALDIA",
  "HABITANTES": 17000,
  "DESESCOLARIDAD_2019_2023": 200,
  "DESESCOLARIDAD_2024_2027": 5
 },
 {
  "DEPARTAMENTO": "SANTANDER",
  "MUNICIPIO": "ALBANIA",
  "LONGITUD": -73.8615,
  "LATITUD": 7.0705,
  "VEREDA_BARRIO": "BARRIO",
  "NOMBRE": "SANTARITA",
  "GESTION": "COMBATIR",
  "CARENCIA": "CONSUMO DE DROGAS",
  "NOMBRE_GRUPO_ARMADO": "NOMBRE LA INTITUCIÓN EDUCATIVA",
  "FACTOR": "FACTOR DE SEGURIDAD",
  "FACTOR_SIMPLIFICADO": "SEGURIDAD",
  "ACTOR_A_EJECUTAR": "GOBERNACION",
  "HABITANTES": 19000,
  "DESESCOLARIDAD_2019_2023": 200,
  "DESESCOLARIDAD_2024_2027": 5
 },
 {
  "DEPARTAMENTO": "SANTANDER",
  "MUNICIPIO": "ALBANIA",
  "LONGITUD": -73.8595,
  "LATITUD": 7.0718,
  "VEREDA_BARRIO": "VEREDA",
  "NOMBRE": "UTAPA",
  "GESTION": "CREAR",
  "CARENCIA": "ESCUELA",
  "NOMBRE_GRUPO_ARMADO": "NOMBRE LA INTITUCIÓN EDUCATIVA",
  "FACTOR": "FACTOR EDUCACION",
  "FACTOR_SIMPLIFICADO": "EDUCACION",
  "ACTOR_A_EJECUTAR": "GOBERNACION",
  "HABITANTES": 20000,
  "DESESCOLARIDAD_2019_2023": 200,
  "DESESCOLARIDAD_2024_2027": 5
 },
 {
  "DEPARTAMENTO": "SANTANDER",
  "MUNICIPIO": "ALBANIA",
  "LONGITUD": -73.8563,
  "LATITUD": 7.0731,
  "VEREDA_BARRIO": "BARRIO",
  "NOMBRE": "UVALES",
  "GESTION": "CREAR",
  "CARENCIA": "PLAZA DE MERCADO",
  "NOMBRE_GRUPO_ARMADO": "NOMBRE LA INTITUCIÓN EDUCATIVA",
  "FACTOR": "FACTOR SOCIAL Y CULTURAL",
  "FACTOR_SIMPLIFICADO": "SOCIAL Y CULTURAL",
  "ACTOR_A_EJECUTAR": "GOBERNACION",
  "HABITANTES": 16000,
  "DESESCOLARIDAD_2019_2023": 200,
  "DESESCOLARIDAD_2024_2027": 5
 },
 {
  "DEPARTAMENTO": "SANTANDER",
  "MUNICIPIO": "ALBANIA",
  "LONGITUD": -73.8625,
  "LATITUD": 7.069,
  "VEREDA_BARRIO": "BARRIO",
  "NOMBRE": "ALTAMIRA",
  "GESTION": "MEJORAR",
  "CARENCIA": "BIBLIOTECA",
  "NOMBRE_GRUPO_ARMADO": "NOMBRE LA INTITUCIÓN EDUCATIVA",
  "FACTOR": "FACTOR SOCIAL Y CULTURAL",
  "FACTOR_SIMPLIFICADO": "SOCIAL Y CULTURAL",
  "ACTOR_A_EJECUTAR": "ALCALDIA",
  "HABITANTES": 17000,
  "DESESCOLARIDAD_2019_2023": 200,
  "DESESCOLARIDAD_2024_2027": 5
 },
 {
  "DEPARTAMENTO": "SANTANDER",
  "MUNICIPIO": "ALBANIA",
  "LONGITUD": -73.8605,
  "LATITUD": 7.0715,
  "VEREDA_BARRIO": "VEREDA",
  "NOMBRE": "AYACUCHO",
  "GESTION": "CREAR",
  "CARENCIA": "ESCUELA",
  "NOMBRE_GRUPO_ARMADO": "NOMBRE LA INTITUCIÓN EDUCATIVA",
  "FACTOR": "FACTOR EDUCACION",
  "FACTOR_SIMPLIFICADO": "EDUCACION",
  "ACTOR_A_EJECUTAR": "GOBERNACION",
  "HABITANTES": 18000,
  "DESESCOLARIDAD_2019_2023": 200,
  "DESESCOLARIDAD_2024_2027": 5
 },
 {
  "DEPARTAMENTO": "SANTANDER",
  "MUNICIPIO": "ALBANIA",
  "LONGITUD": -73.8597,
  "LATITUD": 7.0712,
  "VEREDA_BARRIO": "VEREDA",
  "NOMBRE": "CANOAS",
  "GESTION": "COMBATIR",
  "CARENCIA": "MICROTRAFICO",
  "NOMBRE_GRUPO_ARMADO": "NOMBRE LA INTITUCIÓN EDUCATIVA",
  "FACTOR": "FACTOR DE SEGURIDAD",
  "FACTOR_SIMPLIFICADO": "SEGURIDAD",
  "ACTOR_A_EJECUTAR": "GOBERNACION",
  "HABITANTES": 18000,
  "DESESCOLARIDAD_2019_2023": 200,
  "DESESCOLARIDAD_2024_2027": 5
 },
 {
  "DEPARTAMENTO": "SANTANDER",
  "MUNICIPIO": "ALBANIA",
  "LONGITUD": -73.8617,
  "LATITUD": 7.0711,
  "VEREDA_BARRIO": "VEREDA",
  "NOMBRE": "CANUTILLO",
  "GESTION": "MEJORAR",
  "CARENCIA": "CANCHA DEPORTIVA",
  "NOMBRE_GRUPO_ARMADO": "NOMBRE LA INTITUCIÓN EDUCATIVA",
  "FACTOR": "FACTOR DEPORTIVO",
  "FACTOR_SIMPLIFICADO": "DEPORTIVO",
  "ACTOR_A_EJECUTAR": "ALCALDIA",
  "HABITANTES": 18000,
  "DESESCOLARIDAD_2019_2023": 200,
  "DESESCOLARIDAD_2024_2027": 5
 },
 {
  "DEPARTAMENTO": "SANTANDER",
  "MUNICIPIO": "ALBANIA",
  "LONGITUD": -73.8490999999999,
  "LATITUD": 7.0689,
  "VEREDA_BARRIO": "BARRIO",
  "NOMBRE": "CARRETERO",
  "GESTION": "CREAR",
  "CARENCIA": "BIBLIOTECA",
  "NOMBRE_GRUPO_ARMADO": "NOMBRE LA INTITUCIÓN EDUCATIVA",
  "FACTOR": "FACTOR SOCIAL Y CULTURAL",
  "FACTOR_SIMPLIFICADO": "SOCIAL Y CULTURAL",
  "ACTOR_A_EJECUTAR": "GOBERNACION",
  "HABITANTES": 14000,
  "DESESCOLARIDAD_2019_2023": 200,
  "DESESCOLARIDAD_2024_2027": 5
 },
 {
  "DEPARTAMENTO": "SANTANDER",
  "MUNICIPIO": "ALBANIA",
  "LONGITUD": -73.8641,
  "LATITUD": 7.0697,
  "VEREDA_BARRIO": "BARRIO",
  "NOMBRE": "POTREROS",
  "GESTION": "COMBATIR",
  "CARENCIA": "MICROTRAFICO",
  "NOMBRE_GRUPO_ARMADO": "NOMBRE LA INTITUCIÓN EDUCATIVA",
  "FACTOR": "FACTOR DE SEGURIDAD",
  "FACTOR_SIMPLIFICADO": "SEGURIDAD",
  "ACTOR_A_EJECUTAR": "GOBERNACION",
  "HABITANTES": 18000,
  "DESESCOLARIDAD_2019_2023": 200,
  "DESESCOLARIDAD_2024_2027": 5
 },
 {
  "DEPARTAMENTO": "SANTANDER",
  "MUNICIPIO": "ALBANIA",
  "LONGITUD": -73.8589,
  "LATITUD": 7.0713,
  "VEREDA_BARRIO": "BARRIO",
  "NOMBRE": "POVEDA",
  "GESTION": "REPARAR",
  "CARENCIA": "ALUMBRADO PUBLICO",
  "NOMBRE_GRUPO_ARMADO": "NOMBRE LA INTITUCIÓN EDUCATIVA",
  "FACTOR": "FACTOR DE INFRAESTRUCTURA",
  "FACTOR_SIMPLIFICADO": "INFRAESTRUCTURA",
  "ACTOR_A_EJECUTAR": "ALCALDIA",
  "HABITANTES": 20000,
  "DESESCOLARIDAD_2019_2023": 200,
  "DESESCOLARIDAD_2024_2027": 5
 },
 {
  "DEPARTAMENTO": "SANTANDER",
  "MUNICIPIO": "ALBANIA",
  "LONGITUD": -73.8622,
  "LATITUD": 7.0695,
  "VEREDA_BARRIO": "VEREDA",
  "NOMBRE": "PUEBLOVIEJO",
  "GESTION": "CREAR",
  "CARENCIA": "HOSPITAL",
  "NOMBRE_GRUPO_ARMADO": "NOMBRE LA INTITUCIÓN EDUCATIVA",
  "FACTOR": "FACTOR DE SALUD",
  "FACTOR_SIMPLIFICADO": "SALUD",
  "ACTOR_A_EJECUTAR": "GOBERNACION",
  "HABITANTES": 19000,
  "DESESCOLARIDAD_2019_2023": 200,
  "DESESCOLARIDAD_2024_2027": 5
 },
 {
  "DEPARTAMENTO": "SANTANDER",
  "MUNICIPIO": "ALBANIA",
  "LONGITUD": -73.8623,
  "LATITUD": 7.0689,
  "VEREDA_BARRIO": "BARRIO",
  "NOMBRE": "SABANETA",
  "GESTION": "MEJORAR",
  "CARENCIA": "PARQUE INFANTIL",
  "NOMBRE_GRUPO_ARMADO": "NOMBRE LA INTITUCIÓN EDUCATIVA",
  "FACTOR": "FACTOR SOCIAL Y CULTURAL",
  "FACTOR_SIMPLIFICADO": "SOCIAL Y CULTURAL",
  "ACTOR_A_EJECUTAR": "ALCALDIA",
  "HABITANTES": 20000,
  "DESESCOLARIDAD_2019_2023": 200,
  "DESESCOLARIDAD_2024_2027": 5
 },
 {
  "DEPARTAMENTO": "SANTANDER",
  "MUNICIPIO": "ALBANIA",
  "LONGITUD": -73.8567,
  "LATITUD": 7.0704,
  "VEREDA_BARRIO": "VEREDA",
  "NOMBRE": "SALITRE",
  "GESTION": "CREAR",
  "CARENCIA": "PLAZA DE MERCADO",
  "NOMBRE_GRUPO_ARMADO": "NOMBRE LA INTITUCIÓN EDUCATIVA",
  "FACTOR": "FACTOR SOCIAL Y CULTURAL",
  "FACTOR_SIMPLIFICADO": "SOCIAL Y CULTURAL",
  "ACTOR_A_EJECUTAR": "GOBERNACION",
  "HABITANTES": 18000,
  "DESESCOLARIDAD_2019_2023": 200,
  "DESESCOLARIDAD_2024_2027": 5
 },
 {
  "DEPARTAMENTO": "SANTANDER",
  "MUNICIPIO": "ALBANIA",
  "LONGITUD": -73.8554,
  "LATITUD": 7.0702,
  "VEREDA_BARRIO": "BARRIO",
  "NOMBRE": "SANPABLO",
  "GESTION": "COMBATIR",
  "CARENCIA": "MICROTRAFICO",
  "NOMBRE_GRUPO_ARMADO": "ZONA 4",
  "FACTOR": "FACTOR DE SEGURIDAD",
  "FACTOR_SIMPLIFICADO": "SEGURIDAD",
  "ACTOR_A_EJECUTAR": "GOBERNACION",
  "HABITANTES": 15000,
  "DESESCOLARIDAD_2019_2023": 200,
  "DESESCOLARIDAD_2024_2027": 5
 },
 {
  "DEPARTAMENTO": "SANTANDER",
  "MUNICIPIO": "ALBANIA",
  "LONGITUD": -73.8506,
  "LATITUD": 7.0587,
  "VEREDA_BARRIO": "BARRIO",
  "NOMBRE": "SANTARITA",
  "GESTION": "CREAR",
  "CARENCIA": "BIBLIOTECA",
  "NOMBRE_GRUPO_ARMADO": "ZONA 5",
  "FACTOR": "FACTOR SOCIAL Y CULTURAL",
  "FACTOR_SIMPLIFICADO": "SOCIAL Y CULTURAL",
  "ACTOR_A_EJECUTAR": "GOBERNACION",
  "HABITANTES": 18000,
  "DESESCOLARIDAD_2019_2023": 200,
  "DESESCOLARIDAD_2024_2027": 5
 },
 {
  "DEPARTAMENTO": "SANTANDER",
  "MUNICIPIO": "ALBANIA",
  "LONGITUD": -73.8618,
  "LATITUD": 7.0707,
  "VEREDA_BARRIO": "BARRIO",
  "NOMBRE": "UTAPA",
  "GESTION": "CREAR",
  "CARENCIA": "ESCUELA",
  "NOMBRE_GRUPO_ARMADO": "NOMBRE QUEBRADA",
  "FACTOR": "FACTOR EDUCACION",
  "FACTOR_SIMPLIFICADO": "EDUCACION",
  "ACTOR_A_EJECUTAR": "GOBERNACION",
  "HABITANTES": 20000,
  "DESESCOLARIDAD_2019_2023": 200,
  "DESESCOLARIDAD_2024_2027": 5
 },
 {
  "DEPARTAMENTO": "SANTANDER",
  "MUNICIPIO": "ALBANIA",
  "LONGITUD": -73.8603,
  "LATITUD": 7.0657,
  "VEREDA_BARRIO": "VEREDA",
  "NOMBRE": "UVALES",
  "GESTION": "MEJORAR",
  "CARENCIA": "CANCHA DE FUTBOL",
  "NOMBRE_GRUPO_ARMADO": "ZONA 2",
  "FACTOR": "FACTOR DEPORTIVO",
  "FACTOR_SIMPLIFICADO": "DEPORTIVO",
  "ACTOR_A_EJECUTAR": "ALCALDIA",
  "HABITANTES": 18000,
  "DESESCOLARIDAD_2019_2023": 200,
  "DESESCOLARIDAD_2024_2027": 5
 },
 {
  "DEPARTAMENTO": "SANTANDER",
  "MUNICIPIO": "ALBANIA",
  "LONGITUD": -73.8575,
  "LATITUD": 7.0667,
  "VEREDA_BARRIO": "BARRIO",
  "NOMBRE": "ALTAMIRA",
  "GESTION": "COMBATIR",
  "CARENCIA": "CONSUMO DE DROGAS",
  "NOMBRE_GRUPO_ARMADO": "ZONA 3",
  "FACTOR": "FACTOR DE SEGURIDAD",
  "FACTOR_SIMPLIFICADO": "SEGURIDAD",
  "ACTOR_A_EJECUTAR": "GOBERNACION",
  "HABITANTES": 17000,
  "DESESCOLARIDAD_2019_2023": 200,
  "DESESCOLARIDAD_2024_2027": 5
 },
 {
  "DEPARTAMENTO": "SANTANDER",
  "MUNICIPIO": "ALBANIA",
  "LONGITUD": -73.8625,
  "LATITUD": 7.0687,
  "VEREDA_BARRIO": "BARRIO",
  "NOMBRE": "AYACUCHO",
  "GESTION": "CREAR",
  "CARENCIA": "BIBLIOTECA",
  "NOMBRE_GRUPO_ARMADO": "ZONA 6",
  "FACTOR": "FACTOR SOCIAL Y CULTURAL",
  "FACTOR_SIMPLIFICADO": "SOCIAL Y CULTURAL",
  "ACTOR_A_EJECUTAR": "GOBERNACION",
  "HABITANTES": 19000,
  "DESESCOLARIDAD_2019_2023": 200,
  "DESESCOLARIDAD_2024_2027": 5
 },
 {
  "DEPARTAMENTO": "SANTANDER",
  "MUNICIPIO": "ALBANIA",
  "LONGITUD": -73.8637,
  "LATITUD": 7.0636,
  "VEREDA_BARRIO": "BARRIO",
  "NOMBRE": "CANOAS",
  "GESTION": "COMBATIR",
  "CARENCIA": "CONSUMO DE DROGAS",
  "NOMBRE_GRUPO_ARMADO": "ZONA 7",
  "FACTOR": "FACTOR DE SEGURIDAD",
  "FACTOR_SIMPLIFICADO": "SEGURIDAD",
  "ACTOR_A_EJECUTAR": "GOBERNACION",
  "HABITANTES": 15000,
  "DESESCOLARIDAD_2019_2023": 200,
  "DESESCOLARIDAD_2024_2027": 5
 },
 {
  "DEPARTAMENTO": "SANTANDER",
  "MUNICIPIO": "ALBANIA",
  "LONGITUD": -73.862,
  "LATITUD": 7.0704,
  "VEREDA_BARRIO": "VEREDA",
  "NOMBRE": "CANUTILLO",
  "GESTION": "COMBATIR",
  "CARENCIA": "CONSUMO DE DROGAS",
  "NOMBRE_GRUPO_ARMADO": "ZONA 8",
  "FACTOR": "FACTOR DE SEGURIDAD",
  "FACTOR_SIMPLIFICADO": "SEGURIDAD",
  "ACTOR_A_EJECUTAR": "GOBERNACION",
  "HABITANTES": 17000,
  "DESESCOLARIDAD_2019_2023": 200,
  "DESESCOLARIDAD_2024_2027": 5
 },
 {
  "DEPARTAMENTO": "SANTANDER",
  "MUNICIPIO": "ALBANIA",
  "LONGITUD": -73.8642,
  "LATITUD": 7.0691,
  "VEREDA_BARRIO": "BARRIO",
  "NOMBRE": "CARRETERO",
  "GESTION": "CREAR",
  "CARENCIA": "CENTRO DE RECREACION",
  "NOMBRE_GRUPO_ARMADO": "ZONA 9",
  "FACTOR": "FACTOR SOCIAL Y CULTURAL",
  "FACTOR_SIMPLIFICADO": "SOCIAL Y CULTURAL",
  "ACTOR_A_EJECUTAR": "GOBERNACION",
  "HABITANTES": 16000,
  "DESESCOLARIDAD_2019_2023": 200,
  "DESESCOLARIDAD_2024_2027": 5
 },
 {
  "DEPARTAMENTO": "SANTANDER",
  "MUNICIPIO": "ALBANIA",
  "LONGITUD": -73.8632,
  "LATITUD": 7.0722,
  "VEREDA_BARRIO": "VEREDA",
  "NOMBRE": "CHEBRE",
  "GESTION": "COMBATIR",
  "CARENCIA": "CONSUMO DE DROGAS",
  "NOMBRE_GRUPO_ARMADO": "ZONA 10",
  "FACTOR": "FACTOR DE SEGURIDAD",
  "FACTOR_SIMPLIFICADO": "SEGURIDAD",
  "ACTOR_A_EJECUTAR": "GOBERNACION",
  "HABITANTES": 14000,
  "DESESCOLARIDAD_2019_2023": 200,
  "DESESCOLARIDAD_2024_2027": 5
 },
 {
  "DEPARTAMENTO": "SANTANDER",
  "MUNICIPIO": "ALBANIA",
  "LONGITUD": -73.8591,
  "LATITUD": 7.0724,
  "VEREDA_BARRIO": "VEREDA",
  "NOMBRE": "CORCONDILLA",
  "GESTION": "CREAR",
  "CARENCIA": "ESCUELA",
  "NOMBRE_GRUPO_ARMADO": "FARC",
  "FACTOR": "FACTOR EDUCACION",
  "FACTOR_SIMPLIFICADO": "EDUCACION",
  "ACTOR_A_EJECUTAR": "GOBERNACION",
  "HABITANTES": 18000,
  "DESESCOLARIDAD_2019_2023": 200,
  "DESESCOLARIDAD_2024_2027": 5
 },
 {
  "DEPARTAMENTO": "SANTANDER",
  "MUNICIPIO": "ALBANIA",
  "LONGITUD": -73.8596,
  "LATITUD": 7.0739,
  "VEREDA_BARRIO": "VEREDA",
  "NOMBRE": "ELHATILLO",
  "GESTION": "REPARAR",
  "CARENCIA": "ALUMBRADO PUBLICO",
  "NOMBRE_GRUPO_ARMADO": "CLAN DEL GOLFO",
  "FACTOR": "FACTOR DE INFRAESTRUCTURA",
  "FACTOR_SIMPLIFICADO": "INFRAESTRUCTURA",
  "ACTOR_A_EJECUTAR": "ALCALDIA",
  "HABITANTES": 18000,
  "DESESCOLARIDAD_2019_2023": 200,
  "DESESCOLARIDAD_2024_2027": 5
 },
 {
  "DEPARTAMENTO": "SANTANDER",
  "MUNICIPIO": "ALBANIA",
  "LONGITUD": -73.8604,
  "LATITUD": 7.071,
  "VEREDA_BARRIO": "VEREDA",
  "NOMBRE": "ELTABLON",
  "GESTION": "CREAR",
  "CARENCIA": "ESCUELA",
  "NOMBRE_GRUPO_ARMADO": "ZONA 10",
  "FACTOR": "FACTOR EDUCACION",
  "FACTOR_SIMPLIFICADO": "EDUCACION",
  "ACTOR_A_EJECUTAR": "GOBERNACION",
  "HABITANTES": 17000,
  "DESESCOLARIDAD_2019_2023": 200,
  "DESESCOLARIDAD_2024_2027": 5
 },
 {
  "DEPARTAMENTO": "SANTANDER",
  "MUNICIPIO": "ALBANIA",
  "LONGITUD": -73.8617,
  "LATITUD": 7.0703,
  "VEREDA_BARRIO": "VEREDA",
  "NOMBRE": "GUACOS",
  "GESTION": "REPARAR",
  "CARENCIA": "CANCHA DEPORTIVA",
  "NOMBRE_GRUPO_ARMADO": "NOMBRE LA INTITUCIÓN EDUCATIVA",
  "FACTOR": "FACTOR DEPORTIVO",
  "FACTOR_SIMPLIFICADO": "DEPORTIVO",
  "ACTOR_A_EJECUTAR": "ALCALDIA",
  "HABITANTES": 16000,
  "DESESCOLARIDAD_2019_2023": 200,
  "DESESCOLARIDAD_2024_2027": 5
 },
 {
  "DEPARTAMENTO": "SANTANDER",
  "MUNICIPIO": "ALBANIA",
  "LONGITUD": -73.8648,
  "LATITUD": 7.0769,
  "VEREDA_BARRIO": "BARRIO",
  "NOMBRE": "GUAYABAL",
  "GESTION": "COMBATIR",
  "CARENCIA": "MICROTRAFICO",
  "NOMBRE_GRUPO_ARMADO": "ZONA 12",
  "FACTOR": "FACTOR DE SEGURIDAD",
  "FACTOR_SIMPLIFICADO": "SEGURIDAD",
  "ACTOR_A_EJECUTAR": "GOBERNACION",
  "HABITANTES": 17000,
  "DESESCOLARIDAD_2019_2023": 200,
  "DESESCOLARIDAD_2024_2027": 5
 },